[
  {
    "name": "黄山市第二人民医院",
    "lng": 118.2720229,
    "lat": 29.68882402,
    "value": 70
  },
  {
    "name": "安徽中医药大学第二附属医院(安徽省针灸医院)",
    "lng": 117.2876703,
    "lat": 31.87517673,
    "value": 70
  },
  {
    "name": "泾县中医院",
    "lng": 118.415782,
    "lat": 30.69557988,
    "value": 70
  },
  {
    "name": "太和县精神病医院",
    "lng": 115.6346727,
    "lat": 33.17017543,
    "value": 70
  },
  {
    "name": "黄山市中医医院",
    "lng": 118.333575,
    "lat": 29.7241556,
    "value": 70
  },
  {
    "name": "淮南朝阳医院(民营)",
    "lng": 117.029721,
    "lat": 32.6460911,
    "value": 70
  },
  {
    "name": "焦村中心卫生院",
    "lng": 118.078894,
    "lat": 30.19159008,
    "value": 70
  },
  {
    "name": "安徽省肿瘤医院(安徽省立医院西区)",
    "lng": 117.218296,
    "lat": 31.87759001,
    "value": 70
  },
  {
    "name": "合肥市第二人民医院",
    "lng": 117.324959,
    "lat": 31.862423,
    "value": 70
  },
  {
    "name": "祁山镇卫生院灯塔分院",
    "lng": 117.682322,
    "lat": 29.86320498,
    "value": 70
  },
  {
    "name": "祁门县金字牌中心卫生院",
    "lng": 117.8174974,
    "lat": 29.8482843,
    "value": 70
  },
  {
    "name": "利辛县人民医院",
    "lng": 116.1939281,
    "lat": 33.15362865,
    "value": 70
  },
  {
    "name": "安庆市第一人民医院",
    "lng": 117.055782,
    "lat": 30.51303189,
    "value": 70
  },
  {
    "name": "第二人民医院",
    "lng": 117.0431704,
    "lat": 30.51676169,
    "value": 70
  },
  {
    "name": "蚌埠医学院第二附属医院",
    "lng": 117.4060328,
    "lat": 32.93307904,
    "value": 70
  },
  {
    "name": "中国人民解放军海军安庆医院",
    "lng": 117.053254,
    "lat": 30.5171449,
    "value": 70
  },
  {
    "name": "淮南东方医院集团肿瘤医院",
    "lng": 117.10426,
    "lat": 32.61968906,
    "value": 70
  },
  {
    "name": "安凌镇中心卫生院赤岭分院",
    "lng": 117.584629,
    "lat": 30.05282626,
    "value": 70
  },
  {
    "name": "东方医院集团谢一医院",
    "lng": 116.868594,
    "lat": 32.60832806,
    "value": 70
  },
  {
    "name": "安庆市第八人民医院",
    "lng": 117.0855383,
    "lat": 30.51535015,
    "value": 70
  },
  {
    "name": "安徽医科大学第二附属医院",
    "lng": 117.2180004,
    "lat": 31.79637489,
    "value": 70
  },
  {
    "name": "闪里中心卫生院",
    "lng": 117.362151,
    "lat": 29.877391,
    "value": 70
  },
  {
    "name": "蚌埠医学院第一附属医院",
    "lng": 117.380263,
    "lat": 32.95824714,
    "value": 70
  },
  {
    "name": "祁红乡卫生院",
    "lng": 117.680772,
    "lat": 29.69541203,
    "value": 70
  },
  {
    "name": "龙门乡卫生院",
    "lng": 118.129087,
    "lat": 30.37561497,
    "value": 70
  },
  {
    "name": "宣城和平医院",
    "lng": 119.1982714,
    "lat": 31.18464205,
    "value": 70
  },
  {
    "name": "祁门县古溪乡卫生院",
    "lng": 117.587772,
    "lat": 29.95140293,
    "value": 70
  },
  {
    "name": "霍山县中医院",
    "lng": 116.335683,
    "lat": 31.40484588,
    "value": 70
  },
  {
    "name": "枞阳县中医医院",
    "lng": 117.254049,
    "lat": 30.73233185,
    "value": 70
  },
  {
    "name": "安庆市立医院",
    "lng": 117.0564188,
    "lat": 30.51045993,
    "value": 70
  },
  {
    "name": "马城镇中心卫生院",
    "lng": 117.218014,
    "lat": 32.86267311,
    "value": 70
  },
  {
    "name": "黄山市第三人民医院",
    "lng": 118.3506997,
    "lat": 29.82115415,
    "value": 70
  },
  {
    "name": "界首市人民医院",
    "lng": 115.364113,
    "lat": 33.26789911,
    "value": 70
  },
  {
    "name": "休宁溪口中心卫生院",
    "lng": 118.0182143,
    "lat": 29.69079291,
    "value": 70
  },
  {
    "name": "黟县中医医院",
    "lng": 117.952185,
    "lat": 29.93478298,
    "value": 70
  },
  {
    "name": "涡阳县中医院",
    "lng": 116.228974,
    "lat": 33.5396721,
    "value": 70
  },
  {
    "name": "宁国市中医院",
    "lng": 118.987687,
    "lat": 30.62827287,
    "value": 70
  },
  {
    "name": "黄山区耿城镇卫生院",
    "lng": 118.153678,
    "lat": 30.24486605,
    "value": 70
  },
  {
    "name": "安庆市石化医院",
    "lng": 117.048227,
    "lat": 30.53713777,
    "value": 70
  },
  {
    "name": "铜陵市第四人民医院",
    "lng": 117.8170102,
    "lat": 30.92865976,
    "value": 70
  },
  {
    "name": "固镇县中医院",
    "lng": 117.334375,
    "lat": 33.32440013,
    "value": 70
  },
  {
    "name": "淮南市第二人民医院",
    "lng": 116.8574583,
    "lat": 32.62456683,
    "value": 70
  },
  {
    "name": "板桥乡卫生院",
    "lng": 117.9635529,
    "lat": 29.61376512,
    "value": 70
  },
  {
    "name": "太湖县人民医院",
    "lng": 116.310456,
    "lat": 30.45387694,
    "value": 70
  },
  {
    "name": "昌桥中心卫生院",
    "lng": 118.4203991,
    "lat": 30.76393647,
    "value": 70
  },
  {
    "name": "黄山区三口镇卫生院",
    "lng": 118.225157,
    "lat": 30.26881607,
    "value": 70
  },
  {
    "name": "阜阳市第六人民医院新区",
    "lng": 115.8023421,
    "lat": 32.88244917,
    "value": 70
  },
  {
    "name": "怀远县中医院",
    "lng": 117.19711,
    "lat": 32.96328311,
    "value": 70
  },
  {
    "name": "广德市中医院",
    "lng": 119.424434,
    "lat": 30.91142587,
    "value": 70
  },
  {
    "name": "双凤医院",
    "lng": 117.2681137,
    "lat": 31.97255198,
    "value": 70
  },
  {
    "name": "淮南现代医院",
    "lng": 116.993637,
    "lat": 32.63700909,
    "value": 70
  },
  {
    "name": "泾县中西医结合医院",
    "lng": 118.4186915,
    "lat": 30.6916582,
    "value": 70
  },
  {
    "name": "临泉县爱心医院",
    "lng": 115.2637556,
    "lat": 33.0580748,
    "value": 70
  },
  {
    "name": "合肥京东方医院",
    "lng": 117.384884,
    "lat": 31.95232203,
    "value": 70
  },
  {
    "name": "临泉县中医风湿医院",
    "lng": 115.269843,
    "lat": 33.05887116,
    "value": 70
  },
  {
    "name": "汪溪街道社区-卫生中心",
    "lng": 118.9883874,
    "lat": 30.69038456,
    "value": 70
  },
  {
    "name": "宣城市人民医院",
    "lng": 118.757831,
    "lat": 30.95727392,
    "value": 70
  },
  {
    "name": "固镇县人民医院",
    "lng": 117.337151,
    "lat": 33.33418013,
    "value": 70
  },
  {
    "name": "淮南市新华医疗集团新华医院",
    "lng": 116.8625506,
    "lat": 32.60153931,
    "value": 70
  },
  {
    "name": "徽州区潜口中心卫生院",
    "lng": 118.31175,
    "lat": 29.86894301,
    "value": 70
  },
  {
    "name": "凫峰镇卫生院",
    "lng": 117.847454,
    "lat": 29.75386797,
    "value": 70
  },
  {
    "name": "阜阳市第二人民医院",
    "lng": 115.796579,
    "lat": 32.90700709,
    "value": 70
  },
  {
    "name": "溶口卫生院",
    "lng": 117.559024,
    "lat": 29.74767996,
    "value": 70
  },
  {
    "name": "怀宁独秀医院",
    "lng": 116.652119,
    "lat": 30.41812894,
    "value": 70
  },
  {
    "name": "阜阳民生医院",
    "lng": 115.836987,
    "lat": 32.86843813,
    "value": 70
  },
  {
    "name": "休宁县中医医院",
    "lng": 118.202072,
    "lat": 29.78488899,
    "value": 70
  },
  {
    "name": "西津街道社区卫生服务中心",
    "lng": 118.9891975,
    "lat": 30.63238009,
    "value": 70
  },
  {
    "name": "安凌中心卫生院",
    "lng": 117.6284496,
    "lat": 30.04692849,
    "value": 70
  },
  {
    "name": "黄山区中医院",
    "lng": 118.135937,
    "lat": 30.29057606,
    "value": 70
  },
  {
    "name": "宁国市港口中心卫生院",
    "lng": 118.924622,
    "lat": 30.73105627,
    "value": 70
  },
  {
    "name": "合肥市第五人民医院",
    "lng": 117.345899,
    "lat": 31.85562099,
    "value": 70
  },
  {
    "name": "舒城县人民医院",
    "lng": 116.9750047,
    "lat": 31.47335199,
    "value": 70
  },
  {
    "name": "美溪乡卫生院",
    "lng": 117.789225,
    "lat": 30.10181121,
    "value": 70
  },
  {
    "name": "阜阳玛丽娅妇产医院",
    "lng": 115.8365029,
    "lat": 32.90475193,
    "value": 70
  },
  {
    "name": "休宁县山斗乡卫生院",
    "lng": 118.1717715,
    "lat": 29.56133606,
    "value": 70
  },
  {
    "name": "合肥市滨湖医院",
    "lng": 117.2956425,
    "lat": 31.74497217,
    "value": 70
  },
  {
    "name": "郎溪县中医院",
    "lng": 119.2103769,
    "lat": 31.14583486,
    "value": 70
  },
  {
    "name": "休宁县蓝田镇卫生院",
    "lng": 118.1038635,
    "lat": 29.91040178,
    "value": 70
  },
  {
    "name": "蚌埠市中医医院",
    "lng": 117.3714822,
    "lat": 32.97200236,
    "value": 70
  },
  {
    "name": "太湖县中医院",
    "lng": 116.29963,
    "lat": 30.45447296,
    "value": 70
  },
  {
    "name": "铜陵市第二人民医院",
    "lng": 117.8257578,
    "lat": 30.93861331,
    "value": 70
  },
  {
    "name": "安徽省立医院",
    "lng": 117.296925,
    "lat": 31.86374301,
    "value": 70
  },
  {
    "name": "宣城市中医院",
    "lng": 118.764031,
    "lat": 30.95658682,
    "value": 70
  },
  {
    "name": "合肥市第一人民医院",
    "lng": 117.2867353,
    "lat": 31.87346822,
    "value": 70
  },
  {
    "name": "淮南市中医院",
    "lng": 117.027557,
    "lat": 32.65723812,
    "value": 70
  },
  {
    "name": "阜阳市人民医院",
    "lng": 115.822612,
    "lat": 32.86886511,
    "value": 70
  },
  {
    "name": "黄山区新华乡中心卫生院",
    "lng": 118.052252,
    "lat": 30.44493797,
    "value": 70
  },
  {
    "name": "蚌埠市第五人民医院",
    "lng": 117.3560733,
    "lat": 32.93356904,
    "value": 70
  },
  {
    "name": "寿县县医院",
    "lng": 116.8102783,
    "lat": 32.55997287,
    "value": 70
  },
  {
    "name": "安庆现代妇科医院",
    "lng": 117.0753289,
    "lat": 30.5409391,
    "value": 70
  },
  {
    "name": "中国中铁阜阳中心医院",
    "lng": 115.8809392,
    "lat": 32.91284944,
    "value": 70
  },
  {
    "name": "安徽中医药大学第一附属医院",
    "lng": 117.267456,
    "lat": 31.86018398,
    "value": 70
  },
  {
    "name": "平安医院",
    "lng": 117.7344248,
    "lat": 29.85529054,
    "value": 70
  },
  {
    "name": "安徽省儿童医院",
    "lng": 117.2868481,
    "lat": 31.83334765,
    "value": 70
  },
  {
    "name": "东方医院集团李郢孜中心医院",
    "lng": 116.9023446,
    "lat": 32.58594683,
    "value": 70
  },
  {
    "name": "祁门县人民医院",
    "lng": 117.701818,
    "lat": 29.85897698,
    "value": 70
  },
  {
    "name": "黄山区人民医院",
    "lng": 118.1431106,
    "lat": 30.30304993,
    "value": 70
  },
  {
    "name": "淮南康宁医院",
    "lng": 116.9372552,
    "lat": 32.61546292,
    "value": 70
  },
  {
    "name": "琴溪镇卫生院",
    "lng": 118.4980004,
    "lat": 30.73323267,
    "value": 70
  },
  {
    "name": "祁门县渚口乡卫生院",
    "lng": 117.495193,
    "lat": 29.85875193,
    "value": 70
  },
  {
    "name": "西递镇卫生院",
    "lng": 118.002426,
    "lat": 29.91043794,
    "value": 70
  },
  {
    "name": "箬坑乡卫生院",
    "lng": 117.391315,
    "lat": 29.95184494,
    "value": 70
  },
  {
    "name": "平里中心卫生院",
    "lng": 117.619495,
    "lat": 29.73717401,
    "value": 70
  },
  {
    "name": "临泉县中医院",
    "lng": 115.277074,
    "lat": 33.07218909,
    "value": 70
  },
  {
    "name": "宿松县人民医院",
    "lng": 116.1392801,
    "lat": 30.15816597,
    "value": 70
  },
  {
    "name": "阜阳市第九人民医院",
    "lng": 115.8367835,
    "lat": 32.90864558,
    "value": 70
  },
  {
    "name": "枞阳县人民医院",
    "lng": 117.251041,
    "lat": 30.71118283,
    "value": 70
  },
  {
    "name": "红十字会博爱医院",
    "lng": 117.0923344,
    "lat": 30.521823,
    "value": 70
  },
  {
    "name": "太和和美医院",
    "lng": 115.610287,
    "lat": 33.22221112,
    "value": 70
  },
  {
    "name": "界首市中医院",
    "lng": 115.354002,
    "lat": 33.24570512,
    "value": 70
  },
  {
    "name": "安庆秉风康复医院",
    "lng": 117.09072,
    "lat": 30.5506239,
    "value": 70
  },
  {
    "name": "太和县中医院",
    "lng": 115.6255242,
    "lat": 33.17747923,
    "value": 70
  },
  {
    "name": "宁国市南山街道社区卫生服务中心",
    "lng": 118.9774018,
    "lat": 30.61434567,
    "value": 70
  },
  {
    "name": "东亭乡卫生院",
    "lng": 119.5322403,
    "lat": 30.87111574,
    "value": 70
  },
  {
    "name": "铜陵市中医医院",
    "lng": 117.862129,
    "lat": 30.94691382,
    "value": 70
  },
  {
    "name": "祁山镇卫生院乔山分院",
    "lng": 117.73074,
    "lat": 29.76656795,
    "value": 70
  },
  {
    "name": "黄山市徽州区杨村乡卫生院",
    "lng": 118.18639,
    "lat": 29.97914291,
    "value": 70
  },
  {
    "name": "宏村镇卫生院",
    "lng": 117.991351,
    "lat": 30.00911632,
    "value": 70
  },
  {
    "name": "临泉国健医院",
    "lng": 115.2688081,
    "lat": 33.05076196,
    "value": 70
  },
  {
    "name": "黄山区永丰乡卫生院",
    "lng": 117.97766,
    "lat": 30.43111093,
    "value": 70
  },
  {
    "name": "蒙城县第二人民医院",
    "lng": 116.562556,
    "lat": 33.27343515,
    "value": 70
  },
  {
    "name": "利辛县第二人民医院",
    "lng": 116.212742,
    "lat": 33.14634409,
    "value": 70
  },
  {
    "name": "广德惠民医院",
    "lng": 119.4650675,
    "lat": 30.89306402,
    "value": 70
  },
  {
    "name": "蚌埠市第一人民医院",
    "lng": 117.357148,
    "lat": 32.93664683,
    "value": 70
  },
  {
    "name": "黄山区谭家桥镇中心卫生院",
    "lng": 118.27913,
    "lat": 30.17621416,
    "value": 70
  },
  {
    "name": "蚌埠五和医院",
    "lng": 117.8798968,
    "lat": 33.13236223,
    "value": 70
  },
  {
    "name": "安庆市第四人民医院",
    "lng": 117.061453,
    "lat": 30.54986201,
    "value": 70
  },
  {
    "name": "黄山区新明乡卫生院",
    "lng": 118.2608,
    "lat": 30.33289997,
    "value": 70
  },
  {
    "name": "怀远县第二人民医院",
    "lng": 117.2196484,
    "lat": 32.97703011,
    "value": 70
  },
  {
    "name": "塔坊镇卫生院",
    "lng": 117.676346,
    "lat": 29.784563,
    "value": 70
  },
  {
    "name": "甘棠医院",
    "lng": 118.1481082,
    "lat": 30.29901839,
    "value": 70
  },
  {
    "name": "安徽省第二人民医院",
    "lng": 117.3124737,
    "lat": 31.90156157,
    "value": 70
  },
  {
    "name": "铜陵市人民医院",
    "lng": 117.8289851,
    "lat": 30.92483102,
    "value": 70
  },
  {
    "name": "流口中心卫生院",
    "lng": 117.7971312,
    "lat": 29.70936737,
    "value": 70
  },
  {
    "name": "太和县第五人民医院",
    "lng": 115.6270824,
    "lat": 33.18464606,
    "value": 70
  },
  {
    "name": "利辛县中医院",
    "lng": 116.20742,
    "lat": 33.14720213,
    "value": 70
  },
  {
    "name": "宁国安宁中医医院",
    "lng": 118.9846226,
    "lat": 30.61629654,
    "value": 70
  },
  {
    "name": "广德市人民医院",
    "lng": 119.422172,
    "lat": 30.89109681,
    "value": 70
  },
  {
    "name": "铜陵市立医院",
    "lng": 117.8168597,
    "lat": 30.93752085,
    "value": 70
  },
  {
    "name": "黟县碧阳卫生院社区卫生服务中心",
    "lng": 117.950763,
    "lat": 29.93353699,
    "value": 70
  },
  {
    "name": "蒙城县第一人民医院",
    "lng": 116.5645715,
    "lat": 33.26119373,
    "value": 70
  },
  {
    "name": "望江县中医医院",
    "lng": 116.699482,
    "lat": 30.13209414,
    "value": 70
  },
  {
    "name": "耳鼻喉专科",
    "lng": 115.3582284,
    "lat": 33.26088316,
    "value": 70
  },
  {
    "name": "郎溪县人民医院",
    "lng": 119.1861582,
    "lat": 31.13541077,
    "value": 70
  },
  {
    "name": "宁国康嘉医院",
    "lng": 118.9860531,
    "lat": 30.62294703,
    "value": 70
  },
  {
    "name": "五河县中医院",
    "lng": 117.9002615,
    "lat": 33.14277775,
    "value": 70
  },
  {
    "name": "淮南市寿县中医院",
    "lng": 116.789592,
    "lat": 32.56115009,
    "value": 70
  },
  {
    "name": "望江县医院",
    "lng": 116.679508,
    "lat": 30.14300919,
    "value": 70
  },
  {
    "name": "历口中心卫生院",
    "lng": 117.519123,
    "lat": 29.90403493,
    "value": 70
  },
  {
    "name": "蚌埠市第二人民医院",
    "lng": 117.378788,
    "lat": 32.9524141,
    "value": 70
  },
  {
    "name": "铜陵市中西医结合医院",
    "lng": 117.968004,
    "lat": 30.96383484,
    "value": 70
  },
  {
    "name": "广德卢村乡卫生院",
    "lng": 119.43714,
    "lat": 30.83211483,
    "value": 70
  },
  {
    "name": "佳乐妇产医院",
    "lng": 116.8584263,
    "lat": 32.59832683,
    "value": 70
  },
  {
    "name": "大坦乡卫生院",
    "lng": 117.76395,
    "lat": 29.94909295,
    "value": 70
  },
  {
    "name": "淮南市第三人民医院",
    "lng": 117.058884,
    "lat": 32.63791211,
    "value": 70
  },
  {
    "name": "阜阳国济医院",
    "lng": 115.8328424,
    "lat": 32.90506081,
    "value": 70
  },
  {
    "name": "阜阳阳光医院",
    "lng": 115.8158836,
    "lat": 32.93145062,
    "value": 70
  },
  {
    "name": "五河县人民医院",
    "lng": 117.892187,
    "lat": 33.14781411,
    "value": 70
  },
  {
    "name": "渔亭镇卫生院",
    "lng": 117.9847345,
    "lat": 29.84306871,
    "value": 70
  },
  {
    "name": "中山医院",
    "lng": 117.048836,
    "lat": 32.64995014,
    "value": 70
  },
  {
    "name": "太和皖北医院",
    "lng": 115.6204972,
    "lat": 33.19733894,
    "value": 70
  },
  {
    "name": "阜阳市第四人民医院",
    "lng": 115.8684153,
    "lat": 32.92153242,
    "value": 70
  },
  {
    "name": "蒙城县第六人民医院",
    "lng": 116.689944,
    "lat": 33.1839511,
    "value": 70
  },
  {
    "name": "蚌埠市第三人民医院",
    "lng": 117.373379,
    "lat": 32.94494311,
    "value": 70
  },
  {
    "name": "泾县医院",
    "lng": 118.4102981,
    "lat": 30.68059212,
    "value": 70
  },
  {
    "name": "宣城市妇女儿童医院",
    "lng": 118.7852552,
    "lat": 30.95979539,
    "value": 70
  },
  {
    "name": "小路口镇卫生院",
    "lng": 117.61676,
    "lat": 29.86192497,
    "value": 70
  },
  {
    "name": "安徽省胸科医院",
    "lng": 117.267408,
    "lat": 31.85106098,
    "value": 70
  },
  {
    "name": "祁门县中医院",
    "lng": 117.727249,
    "lat": 29.87045797,
    "value": 70
  },
  {
    "name": "安庆市中医院",
    "lng": 117.0450896,
    "lat": 30.51303827,
    "value": 70
  },
  {
    "name": "安徽医科大学附属阜阳医院",
    "lng": 115.910812,
    "lat": 32.81724512,
    "value": 70
  },
  {
    "name": "铜陵市义安区人民医院",
    "lng": 117.798224,
    "lat": 30.96095983,
    "value": 70
  },
  {
    "name": "黄山区汤口镇卫生院",
    "lng": 118.17279,
    "lat": 30.06303226,
    "value": 70
  },
  {
    "name": "合肥市第三人民医院",
    "lng": 117.2739546,
    "lat": 31.83632326,
    "value": 70
  },
  {
    "name": "阜阳市肿瘤医院",
    "lng": 115.8455103,
    "lat": 32.89656158,
    "value": 70
  },
  {
    "name": "黄山区太平湖镇卫生院",
    "lng": 118.007703,
    "lat": 30.33146704,
    "value": 70
  },
  {
    "name": "柯村镇卫生院",
    "lng": 117.757999,
    "lat": 30.11160519,
    "value": 70
  },
  {
    "name": "宁国健民医院",
    "lng": 118.981161,
    "lat": 30.6458749,
    "value": 70
  },
  {
    "name": "蒙城中西医结合医院",
    "lng": 116.551304,
    "lat": 33.26903412,
    "value": 70
  },
  {
    "name": "安徽省中西医结合医院(安徽中医药大学第三附属医院)",
    "lng": 117.250417,
    "lat": 31.86915796,
    "value": 70
  },
  {
    "name": "黟县人民医院",
    "lng": 117.947959,
    "lat": 29.91956893,
    "value": 70
  },
  {
    "name": "临泉县泉河医院",
    "lng": 115.259592,
    "lat": 33.05958913,
    "value": 70
  },
  {
    "name": "洪星乡卫生院",
    "lng": 117.827507,
    "lat": 30.01966725,
    "value": 70
  },
  {
    "name": "立仓医院",
    "lng": 116.718007,
    "lat": 33.03602759,
    "value": 70
  },
  {
    "name": "横山社区卫生服务中心",
    "lng": 119.411445,
    "lat": 30.90288661,
    "value": 70
  },
  {
    "name": "临泉县人民医院",
    "lng": 115.266243,
    "lat": 33.07174616,
    "value": 70
  },
  {
    "name": "太和县人民医院",
    "lng": 115.630012,
    "lat": 33.16527811,
    "value": 70
  },
  {
    "name": "怀远县人民医院",
    "lng": 117.203825,
    "lat": 32.96406609,
    "value": 70
  },
  {
    "name": "休宁县人民医院",
    "lng": 118.1918479,
    "lat": 29.78577583,
    "value": 70
  },
  {
    "name": "临泉华康医院",
    "lng": 115.2615545,
    "lat": 33.0643095,
    "value": 70
  },
  {
    "name": "淮南济民医院",
    "lng": 117.0366679,
    "lat": 32.64784967,
    "value": 70
  },
  {
    "name": "宁国市人民医院",
    "lng": 118.9961045,
    "lat": 30.63087991,
    "value": 70
  },
  {
    "name": "舒城县中医院",
    "lng": 116.952941,
    "lat": 31.46159091,
    "value": 70
  },
  {
    "name": "黄山区乌石镇中心卫生院",
    "lng": 117.978215,
    "lat": 30.25921904,
    "value": 70
  },
  {
    "name": "蚌埠市第四人民医院",
    "lng": 117.335902,
    "lat": 32.92909397,
    "value": 70
  },
  {
    "name": "蒙城县第四人民医院",
    "lng": 116.645431,
    "lat": 33.4559341,
    "value": 70
  },
  {
    "name": "霍山县医院",
    "lng": 116.3151062,
    "lat": 31.40556538,
    "value": 70
  },
  {
    "name": "黄山市徽州区西溪南镇中心卫生院",
    "lng": 118.292877,
    "lat": 29.83780695,
    "value": 70
  },
  {
    "name": "岩寺镇卫生院",
    "lng": 118.3379299,
    "lat": 29.82263248,
    "value": 70
  },
  {
    "name": "新丰医院",
    "lng": 118.0917182,
    "lat": 30.50538487,
    "value": 70
  },
  {
    "name": "宣城市仁杰医院",
    "lng": 118.7745467,
    "lat": 30.94269803,
    "value": 70
  },
  {
    "name": "涡阳北大医院",
    "lng": 116.198894,
    "lat": 33.51382584,
    "value": 70
  },
  {
    "name": "宿松县中医院",
    "lng": 116.127301,
    "lat": 30.1684431,
    "value": 70
  },
  {
    "name": "涡阳县人民医院",
    "lng": 116.215364,
    "lat": 33.495198,
    "value": 70
  },
  {
    "name": "北京中医医院顺义医院",
    "lng": 116.661304,
    "lat": 40.13390706,
    "value": 70
  },
  {
    "name": "北京积水潭医院(回龙观院区)",
    "lng": 116.32965,
    "lat": 40.09279104,
    "value": 70
  },
  {
    "name": "首都医科大学附属北京友谊医院(通州院区)",
    "lng": 116.689393,
    "lat": 39.94072207,
    "value": 70
  },
  {
    "name": "北京京煤集团总医院",
    "lng": 116.103409,
    "lat": 39.94509005,
    "value": 70
  },
  {
    "name": "北京大学第一医院",
    "lng": 116.387052,
    "lat": 39.93804605,
    "value": 70
  },
  {
    "name": "北京市密云区妇幼保健院",
    "lng": 116.866826,
    "lat": 40.37890706,
    "value": 70
  },
  {
    "name": "北京市顺义区空港医院",
    "lng": 116.550329,
    "lat": 40.11367408,
    "value": 70
  },
  {
    "name": "首都医科大学附属北京朝阳医院",
    "lng": 116.460197,
    "lat": 39.93114407,
    "value": 70
  },
  {
    "name": "北京市怀柔区第二医院",
    "lng": 116.65182,
    "lat": 40.74361202,
    "value": 70
  },
  {
    "name": "中国中医科学院望京医院",
    "lng": 116.479714,
    "lat": 39.98811607,
    "value": 70
  },
  {
    "name": "北京大学第三医院",
    "lng": 116.366995,
    "lat": 39.98838909,
    "value": 70
  },
  {
    "name": "北京市上地医院",
    "lng": 116.305278,
    "lat": 40.03033409,
    "value": 70
  },
  {
    "name": "北京市平谷区中医医院",
    "lng": 117.127617,
    "lat": 40.16269504,
    "value": 70
  },
  {
    "name": "北京怀柔医院",
    "lng": 116.667075,
    "lat": 40.32361802,
    "value": 70
  },
  {
    "name": "北京积水潭医院(新街口院区)",
    "lng": 116.382265,
    "lat": 39.9504941,
    "value": 70
  },
  {
    "name": "北京市顺义区医院",
    "lng": 116.662254,
    "lat": 40.13463209,
    "value": 70
  },
  {
    "name": "北京清华长庚医院",
    "lng": 116.421295,
    "lat": 40.07938204,
    "value": 70
  },
  {
    "name": "首都医科大学附属北京安贞医院",
    "lng": 116.409978,
    "lat": 39.97921307,
    "value": 70
  },
  {
    "name": "北京老年医院",
    "lng": 116.170391,
    "lat": 40.05503309,
    "value": 70
  },
  {
    "name": "北京大学国际医院",
    "lng": 116.2705815,
    "lat": 40.10688918,
    "value": 70
  },
  {
    "name": "清华大学医院",
    "lng": 116.32475,
    "lat": 40.00870609,
    "value": 70
  },
  {
    "name": "北京市昌平区中医医院",
    "lng": 116.248065,
    "lat": 40.22234602,
    "value": 70
  },
  {
    "name": "北京京都儿童医院",
    "lng": 116.363983,
    "lat": 40.08595608,
    "value": 70
  },
  {
    "name": "首都医科大学附属北京地坛医院",
    "lng": 116.532687,
    "lat": 40.0296261,
    "value": 70
  },
  {
    "name": "北京市密云区中医医院",
    "lng": 116.857083,
    "lat": 40.38615,
    "value": 70
  },
  {
    "name": "北京大学医院",
    "lng": 116.321025,
    "lat": 40.00256904,
    "value": 70
  },
  {
    "name": "首都医科大学附属北京胸科医院",
    "lng": 116.659215,
    "lat": 39.93007506,
    "value": 70
  },
  {
    "name": "北京市顺义区妇幼保健院",
    "lng": 116.679653,
    "lat": 40.12067809,
    "value": 70
  },
  {
    "name": "中日友好医院",
    "lng": 116.4326197,
    "lat": 39.98034578,
    "value": 70
  },
  {
    "name": "北京市昌平区南口医院",
    "lng": 116.144713,
    "lat": 40.23926103,
    "value": 70
  },
  {
    "name": "北京市门头沟区医院",
    "lng": 116.108415,
    "lat": 39.95112209,
    "value": 70
  },
  {
    "name": "北京市平谷区医院",
    "lng": 117.110755,
    "lat": 40.15263302,
    "value": 70
  },
  {
    "name": "北京市密云区医院",
    "lng": 116.876749,
    "lat": 40.38117706,
    "value": 70
  },
  {
    "name": "北京市昌平区医院",
    "lng": 116.238929,
    "lat": 40.23279902,
    "value": 70
  },
  {
    "name": "航空总医院",
    "lng": 116.426432,
    "lat": 40.03511704,
    "value": 70
  },
  {
    "name": "北京四季青医院",
    "lng": 116.285255,
    "lat": 39.96264911,
    "value": 70
  },
  {
    "name": "北京市昌平区中西医结合医院",
    "lng": 116.372866,
    "lat": 40.08197008,
    "value": 70
  },
  {
    "name": "北京大学首钢医院",
    "lng": 116.210475,
    "lat": 39.93474207,
    "value": 70
  },
  {
    "name": "北京华信医院",
    "lng": 116.501489,
    "lat": 39.97165706,
    "value": 70
  },
  {
    "name": "北京市海淀医院",
    "lng": 116.321675,
    "lat": 39.98286705,
    "value": 70
  },
  {
    "name": "隔川乡卫生院",
    "lng": 116.752448,
    "lat": 25.75711399,
    "value": 70
  },
  {
    "name": "东湖街道社区卫生服务中心",
    "lng": 118.6272142,
    "lat": 24.91501377,
    "value": 70
  },
  {
    "name": "仓山区东升街道社区卫生服务中心",
    "lng": 119.331549,
    "lat": 26.03208397,
    "value": 70
  },
  {
    "name": "福清市第二医院",
    "lng": 119.467011,
    "lat": 25.61803604,
    "value": 70
  },
  {
    "name": "古田县医院",
    "lng": 118.751274,
    "lat": 26.58481999,
    "value": 70
  },
  {
    "name": "长乐区鹤上卫生院",
    "lng": 119.563557,
    "lat": 25.95348099,
    "value": 70
  },
  {
    "name": "鼓楼区鼓东街道社区卫生服务中心",
    "lng": 119.3093883,
    "lat": 26.10144786,
    "value": 70
  },
  {
    "name": "赖源乡卫生院",
    "lng": 117.025422,
    "lat": 25.56659302,
    "value": 70
  },
  {
    "name": "连江县蓼沿乡卫生院",
    "lng": 119.4350655,
    "lat": 26.37047127,
    "value": 70
  },
  {
    "name": "泉秀街道社区卫生服务中心",
    "lng": 118.5992449,
    "lat": 24.88969594,
    "value": 70
  },
  {
    "name": "云霄县中医院",
    "lng": 117.3504978,
    "lat": 23.96285531,
    "value": 70
  },
  {
    "name": "永安市大湖卫生院",
    "lng": 117.340113,
    "lat": 26.05844003,
    "value": 70
  },
  {
    "name": "龙潭卫生院",
    "lng": 117.018136,
    "lat": 24.85137701,
    "value": 70
  },
  {
    "name": "东海街道社区卫生服务中心",
    "lng": 118.635584,
    "lat": 24.883845,
    "value": 70
  },
  {
    "name": "上杭县旧县镇卫生院",
    "lng": 116.503715,
    "lat": 25.212654,
    "value": 70
  },
  {
    "name": "百崎卫生院",
    "lng": 118.734483,
    "lat": 24.88364316,
    "value": 70
  },
  {
    "name": "福建医科大学附属第一医院",
    "lng": 119.3083829,
    "lat": 26.07606647,
    "value": 70
  },
  {
    "name": "后洲街道社区卫生服务中心",
    "lng": 119.306983,
    "lat": 26.05825202,
    "value": 70
  },
  {
    "name": "蓬华镇卫生院",
    "lng": 118.198325,
    "lat": 25.20702401,
    "value": 70
  },
  {
    "name": "陈埭卫生院",
    "lng": 118.615135,
    "lat": 24.83273002,
    "value": 70
  },
  {
    "name": "五凤街道社区卫生服务中心",
    "lng": 119.285355,
    "lat": 26.10942201,
    "value": 70
  },
  {
    "name": "武平县岩前中心卫生院",
    "lng": 116.232864,
    "lat": 24.87607797,
    "value": 70
  },
  {
    "name": "北峰街道社区卫生服务中心",
    "lng": 118.5828665,
    "lat": 24.93699552,
    "value": 70
  },
  {
    "name": "上海街道社区卫生服务中心",
    "lng": 119.301672,
    "lat": 26.07205296,
    "value": 70
  },
  {
    "name": "江南街道社区卫生服务中心",
    "lng": 118.559951,
    "lat": 24.91277502,
    "value": 70
  },
  {
    "name": "纯池卫生院",
    "lng": 119.324878,
    "lat": 27.24502995,
    "value": 70
  },
  {
    "name": "福建省福州神经精神病防治院",
    "lng": 119.295665,
    "lat": 26.03261695,
    "value": 70
  },
  {
    "name": "湖头医院",
    "lng": 118.049218,
    "lat": 25.22846801,
    "value": 70
  },
  {
    "name": "浦源卫生院",
    "lng": 119.305555,
    "lat": 27.12429795,
    "value": 70
  },
  {
    "name": "常泰街道社区卫生服务中心",
    "lng": 118.5224792,
    "lat": 24.9240155,
    "value": 70
  },
  {
    "name": "福建霞浦福宁医院",
    "lng": 120.0306052,
    "lat": 26.89702178,
    "value": 70
  },
  {
    "name": "中国人民解放军第910医院",
    "lng": 118.604954,
    "lat": 24.94508605,
    "value": 70
  },
  {
    "name": "北团慈心医院",
    "lng": 116.7314576,
    "lat": 25.80325772,
    "value": 70
  },
  {
    "name": "上街中心卫生院",
    "lng": 119.197885,
    "lat": 26.07852096,
    "value": 70
  },
  {
    "name": "长汀县大同卫生院",
    "lng": 116.386739,
    "lat": 25.84889198,
    "value": 70
  },
  {
    "name": "东山县中医院",
    "lng": 117.5296296,
    "lat": 23.7378267,
    "value": 70
  },
  {
    "name": "连城益民中医院",
    "lng": 116.7732028,
    "lat": 25.71350237,
    "value": 70
  },
  {
    "name": "上杭县太拔镇卫生院",
    "lng": 116.643834,
    "lat": 24.985689,
    "value": 70
  },
  {
    "name": "福建省三明市第一医院",
    "lng": 117.642073,
    "lat": 26.26756901,
    "value": 70
  },
  {
    "name": "福建省安溪和兴医院",
    "lng": 118.178013,
    "lat": 25.07465597,
    "value": 70
  },
  {
    "name": "崇武中心卫生院",
    "lng": 118.939492,
    "lat": 24.88897901,
    "value": 70
  },
  {
    "name": "福建省建瓯市立医院",
    "lng": 118.336465,
    "lat": 27.046101,
    "value": 70
  },
  {
    "name": "龙岩市永定区华侨医院",
    "lng": 116.838963,
    "lat": 24.60034899,
    "value": 70
  },
  {
    "name": "平安医院",
    "lng": 119.3667743,
    "lat": 25.73509563,
    "value": 70
  },
  {
    "name": "上杭县溪口镇卫生院",
    "lng": 116.687616,
    "lat": 25.07153198,
    "value": 70
  },
  {
    "name": "武平县大禾卫生院",
    "lng": 116.11182,
    "lat": 25.405509,
    "value": 70
  },
  {
    "name": "向阳乡卫生院",
    "lng": 118.4988108,
    "lat": 25.27357275,
    "value": 70
  },
  {
    "name": "县医院",
    "lng": 116.1137557,
    "lat": 25.0970056,
    "value": 70
  },
  {
    "name": "泉州鲤城区妇幼保健院",
    "lng": 118.6020801,
    "lat": 24.91008896,
    "value": 70
  },
  {
    "name": "南平市延平区茫荡镇卫生院",
    "lng": 118.166637,
    "lat": 26.69173998,
    "value": 70
  },
  {
    "name": "湖洋卫生院",
    "lng": 116.333025,
    "lat": 25.04742805,
    "value": 70
  },
  {
    "name": "南安武荣医院",
    "lng": 118.3902179,
    "lat": 24.96994075,
    "value": 70
  },
  {
    "name": "福州市第八医院",
    "lng": 119.3287067,
    "lat": 26.11373058,
    "value": 70
  },
  {
    "name": "铁长卫生院",
    "lng": 116.408918,
    "lat": 25.93683301,
    "value": 70
  },
  {
    "name": "武平县东留卫生院",
    "lng": 116.010896,
    "lat": 25.148717,
    "value": 70
  },
  {
    "name": "龙岩市永定区堂堡镇卫生院",
    "lng": 116.823439,
    "lat": 24.87659502,
    "value": 70
  },
  {
    "name": "桥东卫生院",
    "lng": 117.2069037,
    "lat": 23.66892358,
    "value": 70
  },
  {
    "name": "漳浦县中医院",
    "lng": 117.6488702,
    "lat": 24.11979069,
    "value": 70
  },
  {
    "name": "南平市延平区医院",
    "lng": 118.188706,
    "lat": 26.64277446,
    "value": 70
  },
  {
    "name": "霞浦县中医院",
    "lng": 120.00852,
    "lat": 26.89003894,
    "value": 70
  },
  {
    "name": "龙岩市永定区峰市镇卫生院",
    "lng": 116.633295,
    "lat": 24.676476,
    "value": 70
  },
  {
    "name": "浮桥社区卫生服务中心",
    "lng": 118.563624,
    "lat": 24.92232702,
    "value": 70
  },
  {
    "name": "福清市港头镇卫生院",
    "lng": 119.487848,
    "lat": 25.55709697,
    "value": 70
  },
  {
    "name": "西埔社区卫生服务中心",
    "lng": 117.434323,
    "lat": 23.70447502,
    "value": 70
  },
  {
    "name": "福清市医院",
    "lng": 119.3511216,
    "lat": 25.73489002,
    "value": 70
  },
  {
    "name": "际会卫生院",
    "lng": 117.9054809,
    "lat": 26.85480243,
    "value": 70
  },
  {
    "name": "宁德市闽东医院",
    "lng": 119.6614054,
    "lat": 27.08889158,
    "value": 70
  },
  {
    "name": "龙岩市永定区洪山乡卫生院",
    "lng": 116.526649,
    "lat": 24.74904298,
    "value": 70
  },
  {
    "name": "福州市仓山区建新镇卫生院",
    "lng": 119.289852,
    "lat": 26.03607598,
    "value": 70
  },
  {
    "name": "岵山卫生院",
    "lng": 118.271881,
    "lat": 25.28728698,
    "value": 70
  },
  {
    "name": "闽清县池园中心卫生院",
    "lng": 118.691438,
    "lat": 26.100496,
    "value": 70
  },
  {
    "name": "龙岩市第三医院",
    "lng": 117.0169515,
    "lat": 25.11165064,
    "value": 70
  },
  {
    "name": "泉州市妇幼保健院儿童医院",
    "lng": 118.60978,
    "lat": 24.91014705,
    "value": 70
  },
  {
    "name": "宁德市医院(东侨院区)",
    "lng": 119.5767414,
    "lat": 26.67323773,
    "value": 70
  },
  {
    "name": "福清万通医院",
    "lng": 119.499925,
    "lat": 25.57217504,
    "value": 70
  },
  {
    "name": "漳浦健民医院",
    "lng": 117.631095,
    "lat": 24.11527102,
    "value": 70
  },
  {
    "name": "深沪卫生院",
    "lng": 118.6841139,
    "lat": 24.62151727,
    "value": 70
  },
  {
    "name": "晋江市妇幼保健院",
    "lng": 118.588688,
    "lat": 24.81351902,
    "value": 70
  },
  {
    "name": "南阳中心卫生院",
    "lng": 119.598769,
    "lat": 27.39595495,
    "value": 70
  },
  {
    "name": "福建医科大学附属第二医院（鲤城院区）",
    "lng": 118.5988733,
    "lat": 24.91955925,
    "value": 70
  },
  {
    "name": "莒溪镇卫生院",
    "lng": 116.749937,
    "lat": 25.498508,
    "value": 70
  },
  {
    "name": "郑坊卫生院",
    "lng": 117.7201533,
    "lat": 26.71761282,
    "value": 70
  },
  {
    "name": "潭城街道社区医疗卫生服务中心",
    "lng": 118.1254318,
    "lat": 27.33763885,
    "value": 70
  },
  {
    "name": "晋江市医院",
    "lng": 118.58075,
    "lat": 24.81482618,
    "value": 70
  },
  {
    "name": "大田县上京镇卫生院",
    "lng": 117.680255,
    "lat": 25.724888,
    "value": 70
  },
  {
    "name": "台江区宁化街道社区卫生服务中心(江滨西大道)",
    "lng": 119.2971467,
    "lat": 26.05913696,
    "value": 70
  },
  {
    "name": "市中医院",
    "lng": 119.5428312,
    "lat": 26.6681649,
    "value": 70
  },
  {
    "name": "池店镇卫生院",
    "lng": 118.577601,
    "lat": 24.85776499,
    "value": 70
  },
  {
    "name": "莒口卫生院",
    "lng": 117.9558758,
    "lat": 27.37294364,
    "value": 70
  },
  {
    "name": "尤溪坂面镇中心卫生院",
    "lng": 118.1334026,
    "lat": 26.03686037,
    "value": 70
  },
  {
    "name": "安溪中医院",
    "lng": 118.1933939,
    "lat": 25.06507731,
    "value": 70
  },
  {
    "name": "福清市江阴镇卫生院",
    "lng": 119.3227613,
    "lat": 25.46582006,
    "value": 70
  },
  {
    "name": "梅城社区卫生中心",
    "lng": 118.8780817,
    "lat": 26.2287546,
    "value": 70
  },
  {
    "name": "龙岩市中医院",
    "lng": 117.0218471,
    "lat": 25.09797964,
    "value": 70
  },
  {
    "name": "福建省南平市人民医院",
    "lng": 118.18679,
    "lat": 26.64557299,
    "value": 70
  },
  {
    "name": "安溪县妇幼保健院",
    "lng": 118.193574,
    "lat": 25.065375,
    "value": 70
  },
  {
    "name": "上莲卫生院",
    "lng": 118.657785,
    "lat": 26.04164696,
    "value": 70
  },
  {
    "name": "长汀县新桥中心卫生院",
    "lng": 116.470588,
    "lat": 25.884083,
    "value": 70
  },
  {
    "name": "上杭县南阳镇卫生院",
    "lng": 116.5095727,
    "lat": 25.32456921,
    "value": 70
  },
  {
    "name": "河田中心卫生院",
    "lng": 116.439577,
    "lat": 25.67433804,
    "value": 70
  },
  {
    "name": "芦田卫生院",
    "lng": 117.835908,
    "lat": 25.02525197,
    "value": 70
  },
  {
    "name": "大田县建设镇中心卫生院",
    "lng": 117.79272,
    "lat": 25.98470196,
    "value": 70
  },
  {
    "name": "龙岩市第二医院",
    "lng": 117.007733,
    "lat": 25.11268305,
    "value": 70
  },
  {
    "name": "梅山街道社区卫生中心",
    "lng": 118.1896166,
    "lat": 26.64573582,
    "value": 70
  },
  {
    "name": "泉州台商投资区医院",
    "lng": 118.785457,
    "lat": 24.88991703,
    "value": 70
  },
  {
    "name": "三沙中心卫生院",
    "lng": 120.2289375,
    "lat": 26.92693277,
    "value": 70
  },
  {
    "name": "万安卫生院",
    "lng": 117.072512,
    "lat": 25.41420904,
    "value": 70
  },
  {
    "name": "龙岩市第一医院",
    "lng": 117.0357711,
    "lat": 25.10454732,
    "value": 70
  },
  {
    "name": "福州市第一医院",
    "lng": 119.3192333,
    "lat": 26.06582638,
    "value": 70
  },
  {
    "name": "螺城卫生院社区服务部",
    "lng": 118.8043336,
    "lat": 25.03523343,
    "value": 70
  },
  {
    "name": "中国人民解放军第九0七医院",
    "lng": 118.1792171,
    "lat": 26.65923755,
    "value": 70
  },
  {
    "name": "漳浦县石榴卫生院",
    "lng": 117.543734,
    "lat": 24.14932806,
    "value": 70
  },
  {
    "name": "罗山街道社区卫生服务中心",
    "lng": 118.5699201,
    "lat": 24.79311835,
    "value": 70
  },
  {
    "name": "上杭县下都镇卫生院",
    "lng": 116.46791,
    "lat": 24.82496303,
    "value": 70
  },
  {
    "name": "芹洋卫生院",
    "lng": 119.402482,
    "lat": 27.38734297,
    "value": 70
  },
  {
    "name": "康美卫生院",
    "lng": 118.485755,
    "lat": 25.04056903,
    "value": 70
  },
  {
    "name": "石狮东南医院",
    "lng": 118.624432,
    "lat": 24.73378803,
    "value": 70
  },
  {
    "name": "建瓯市中西医结合医院",
    "lng": 118.310105,
    "lat": 27.03223699,
    "value": 70
  },
  {
    "name": "新泉镇中心卫生院",
    "lng": 116.624956,
    "lat": 25.35593204,
    "value": 70
  },
  {
    "name": "安溪中山医院",
    "lng": 118.1988033,
    "lat": 25.05849702,
    "value": 70
  },
  {
    "name": "小岞卫生院",
    "lng": 119.004666,
    "lat": 24.95449203,
    "value": 70
  },
  {
    "name": "新罗区雁石中心卫生院",
    "lng": 117.156211,
    "lat": 25.253193,
    "value": 70
  },
  {
    "name": "石狮市医院",
    "lng": 118.689728,
    "lat": 24.74031004,
    "value": 70
  },
  {
    "name": "临江社区卫生服务中心",
    "lng": 116.42785,
    "lat": 25.05404397,
    "value": 70
  },
  {
    "name": "仁寿镇卫生院",
    "lng": 117.9075717,
    "lat": 27.09631229,
    "value": 70
  },
  {
    "name": "渔溪镇中心卫生院",
    "lng": 119.304878,
    "lat": 25.60450199,
    "value": 70
  },
  {
    "name": "省璜卫生院",
    "lng": 118.738627,
    "lat": 25.99226903,
    "value": 70
  },
  {
    "name": "泉州滨海医院",
    "lng": 118.4333884,
    "lat": 24.67451321,
    "value": 70
  },
  {
    "name": "鼓楼区东街街道社区卫生服务中心",
    "lng": 119.3098559,
    "lat": 26.08923295,
    "value": 70
  },
  {
    "name": "泉州万鸿医院",
    "lng": 118.6553837,
    "lat": 24.96958085,
    "value": 70
  },
  {
    "name": "书坊卫生院",
    "lng": 117.8426533,
    "lat": 27.3127062,
    "value": 70
  },
  {
    "name": "乐峰镇卫生院",
    "lng": 118.553917,
    "lat": 25.20456498,
    "value": 70
  },
  {
    "name": "梅山卫生院",
    "lng": 117.9302841,
    "lat": 25.96004932,
    "value": 70
  },
  {
    "name": "连江县琯头镇中心卫生院",
    "lng": 119.5721286,
    "lat": 26.13527337,
    "value": 70
  },
  {
    "name": "茶亭街道社区卫生中心",
    "lng": 119.3138331,
    "lat": 26.07011021,
    "value": 70
  },
  {
    "name": "永安市立医院(燕江中路)",
    "lng": 117.3704018,
    "lat": 25.97373615,
    "value": 70
  },
  {
    "name": "武平县武东卫生院",
    "lng": 116.255908,
    "lat": 25.10840401,
    "value": 70
  },
  {
    "name": "大田县吴山乡卫生院",
    "lng": 117.913476,
    "lat": 25.53920899,
    "value": 70
  },
  {
    "name": "吾峰卫生院",
    "lng": 118.257156,
    "lat": 25.39396918,
    "value": 70
  },
  {
    "name": "苍霞街道社区卫生服务中心",
    "lng": 119.311537,
    "lat": 26.05632397,
    "value": 70
  },
  {
    "name": "南安码头医院",
    "lng": 118.371774,
    "lat": 25.19320802,
    "value": 70
  },
  {
    "name": "鼓楼区温泉街道社区卫生服务中心",
    "lng": 119.315162,
    "lat": 26.10374697,
    "value": 70
  },
  {
    "name": "惠安县紫山镇卫生院",
    "lng": 118.741701,
    "lat": 25.04993701,
    "value": 70
  },
  {
    "name": "寿宁县医院",
    "lng": 119.522927,
    "lat": 27.457021,
    "value": 70
  },
  {
    "name": "福清市龙山街道社区卫生服务中心",
    "lng": 119.400825,
    "lat": 25.72338223,
    "value": 70
  },
  {
    "name": "适中卫生院",
    "lng": 117.119264,
    "lat": 24.888842,
    "value": 70
  },
  {
    "name": "永和镇卫生院",
    "lng": 118.577852,
    "lat": 24.699328,
    "value": 70
  },
  {
    "name": "福州市妇幼保健院",
    "lng": 119.326846,
    "lat": 26.07912602,
    "value": 70
  },
  {
    "name": "石狮京都医院",
    "lng": 118.6221869,
    "lat": 24.75458921,
    "value": 70
  },
  {
    "name": "白中中医院",
    "lng": 118.7385277,
    "lat": 26.13930148,
    "value": 70
  },
  {
    "name": "培丰镇卫生院",
    "lng": 116.952544,
    "lat": 24.916311,
    "value": 70
  },
  {
    "name": "寿宁县竹管垅卫生院",
    "lng": 119.5767934,
    "lat": 27.34289295,
    "value": 70
  },
  {
    "name": "河市卫生院",
    "lng": 118.641839,
    "lat": 25.03917499,
    "value": 70
  },
  {
    "name": "福清市音西街道社区卫生服务中心",
    "lng": 119.3676552,
    "lat": 25.73490059,
    "value": 70
  },
  {
    "name": "上杭县蛟洋镇卫生院",
    "lng": 116.7406,
    "lat": 25.22194303,
    "value": 70
  },
  {
    "name": "长乐区吴航街道社区卫生服务中心",
    "lng": 119.5310811,
    "lat": 25.96366131,
    "value": 70
  },
  {
    "name": "连江县敖江卫生院",
    "lng": 119.5427506,
    "lat": 26.20931331,
    "value": 70
  },
  {
    "name": "南侨医院",
    "lng": 118.3066665,
    "lat": 25.19435293,
    "value": 70
  },
  {
    "name": "福州新莲花医院",
    "lng": 119.431632,
    "lat": 26.02839197,
    "value": 70
  },
  {
    "name": "东张镇中心卫生院",
    "lng": 119.258134,
    "lat": 25.71455,
    "value": 70
  },
  {
    "name": "北壁卫生院",
    "lng": 119.866424,
    "lat": 26.56615401,
    "value": 70
  },
  {
    "name": "屏南县医院",
    "lng": 118.99022,
    "lat": 26.91801495,
    "value": 70
  },
  {
    "name": "闽侯县第二医院",
    "lng": 119.394901,
    "lat": 25.929933,
    "value": 70
  },
  {
    "name": "武平县中赤卫生院",
    "lng": 116.141001,
    "lat": 24.93133001,
    "value": 70
  },
  {
    "name": "顺昌县医院",
    "lng": 117.829759,
    "lat": 26.79820596,
    "value": 70
  },
  {
    "name": "建瓯市吉阳卫生院",
    "lng": 118.139252,
    "lat": 27.14576098,
    "value": 70
  },
  {
    "name": "二都华侨医院",
    "lng": 118.8447641,
    "lat": 26.17764372,
    "value": 70
  },
  {
    "name": "汀州医院",
    "lng": 116.3625081,
    "lat": 25.8374461,
    "value": 70
  },
  {
    "name": "丰泽区华大街道社区卫生服务中心",
    "lng": 118.6495931,
    "lat": 24.93532753,
    "value": 70
  },
  {
    "name": "福清融强医院",
    "lng": 119.3921502,
    "lat": 25.70400591,
    "value": 70
  },
  {
    "name": "东园镇中心卫生院",
    "lng": 118.763208,
    "lat": 24.92389,
    "value": 70
  },
  {
    "name": "云霄县陈岱中心卫生院",
    "lng": 117.4195759,
    "lat": 23.79956611,
    "value": 70
  },
  {
    "name": "徐市医院",
    "lng": 118.1049988,
    "lat": 27.22918627,
    "value": 70
  },
  {
    "name": "泉州医高专附属人民医院",
    "lng": 118.6211632,
    "lat": 24.90495944,
    "value": 70
  },
  {
    "name": "永泰县医院",
    "lng": 118.934193,
    "lat": 25.873412,
    "value": 70
  },
  {
    "name": "英墩华侨医院",
    "lng": 118.5636885,
    "lat": 24.73721506,
    "value": 70
  },
  {
    "name": "大南坂卫生院",
    "lng": 117.580655,
    "lat": 24.09398402,
    "value": 70
  },
  {
    "name": "鸿尾卫生院",
    "lng": 119.010294,
    "lat": 26.17451698,
    "value": 70
  },
  {
    "name": "晋江市中医院",
    "lng": 118.589438,
    "lat": 24.82916301,
    "value": 70
  },
  {
    "name": "柘荣县医院",
    "lng": 119.907718,
    "lat": 27.24391104,
    "value": 70
  },
  {
    "name": "福建中医药大学附属第二人民医院",
    "lng": 119.312065,
    "lat": 26.112269,
    "value": 70
  },
  {
    "name": "武陵乡卫生院",
    "lng": 117.727689,
    "lat": 25.63330497,
    "value": 70
  },
  {
    "name": "净峰中心卫生院",
    "lng": 118.973767,
    "lat": 24.97621002,
    "value": 70
  },
  {
    "name": "南安市中医院",
    "lng": 118.395324,
    "lat": 24.98074698,
    "value": 70
  },
  {
    "name": "横口卫生院",
    "lng": 117.9066569,
    "lat": 25.39758493,
    "value": 70
  },
  {
    "name": "福安市医院",
    "lng": 119.687123,
    "lat": 26.97604496,
    "value": 70
  },
  {
    "name": "凤埔卫生院",
    "lng": 118.772061,
    "lat": 26.68139295,
    "value": 70
  },
  {
    "name": "沙西卫生院",
    "lng": 117.554191,
    "lat": 23.93046203,
    "value": 70
  },
  {
    "name": "福清中山医院",
    "lng": 119.380456,
    "lat": 25.72509298,
    "value": 70
  },
  {
    "name": "福建省老年医院",
    "lng": 119.3152381,
    "lat": 26.11418995,
    "value": 70
  },
  {
    "name": "江田镇中心卫生院",
    "lng": 119.582156,
    "lat": 25.82516702,
    "value": 70
  },
  {
    "name": "濯田中心卫生院",
    "lng": 116.291743,
    "lat": 25.56296496,
    "value": 70
  },
  {
    "name": "绥安社区卫生服务中心",
    "lng": 117.622369,
    "lat": 24.12569906,
    "value": 70
  },
  {
    "name": "海口镇中心卫生院",
    "lng": 119.475307,
    "lat": 25.69727099,
    "value": 70
  },
  {
    "name": "九都镇卫生院",
    "lng": 118.460667,
    "lat": 25.20857,
    "value": 70
  },
  {
    "name": "黄墩街道社区卫生服务中心",
    "lng": 118.175809,
    "lat": 26.66164711,
    "value": 70
  },
  {
    "name": "顺昌县岚下卫生院",
    "lng": 117.9997869,
    "lat": 26.96258196,
    "value": 70
  },
  {
    "name": "安泰街道社区卫生服务中心",
    "lng": 119.3102278,
    "lat": 26.07875567,
    "value": 70
  },
  {
    "name": "霞浦县医院",
    "lng": 120.00396,
    "lat": 26.89131698,
    "value": 70
  },
  {
    "name": "建瓯市妇幼保健院",
    "lng": 118.3320638,
    "lat": 27.03919941,
    "value": 70
  },
  {
    "name": "南安市海都医院",
    "lng": 118.435023,
    "lat": 24.71028206,
    "value": 70
  },
  {
    "name": "福州市第七医院",
    "lng": 119.3071722,
    "lat": 26.08511013,
    "value": 70
  },
  {
    "name": "白沙街道社区卫生中心",
    "lng": 117.6207345,
    "lat": 26.24828334,
    "value": 70
  },
  {
    "name": "永安市槐南卫生院",
    "lng": 117.743897,
    "lat": 25.98830701,
    "value": 70
  },
  {
    "name": "李墩中心卫生院",
    "lng": 119.296011,
    "lat": 27.05375099,
    "value": 70
  },
  {
    "name": "洪田卫生院",
    "lng": 117.2652454,
    "lat": 25.85774685,
    "value": 70
  },
  {
    "name": "中山医院(宝南路)",
    "lng": 117.345792,
    "lat": 23.9488636,
    "value": 70
  },
  {
    "name": "连城县医院",
    "lng": 116.752039,
    "lat": 25.70171502,
    "value": 70
  },
  {
    "name": "文亨镇卫生院",
    "lng": 116.763628,
    "lat": 25.66971403,
    "value": 70
  },
  {
    "name": "蓬壶中心卫生院",
    "lng": 118.171473,
    "lat": 25.38748903,
    "value": 70
  },
  {
    "name": "福州市长乐区妇幼保健院",
    "lng": 119.520396,
    "lat": 25.96663896,
    "value": 70
  },
  {
    "name": "福建省妇幼保健院",
    "lng": 119.305607,
    "lat": 26.08495697,
    "value": 70
  },
  {
    "name": "福州市中医院(鼓东路)",
    "lng": 119.308715,
    "lat": 26.09639703,
    "value": 70
  },
  {
    "name": "南平市建阳区水吉镇中心卫生院",
    "lng": 118.356613,
    "lat": 27.42257795,
    "value": 70
  },
  {
    "name": "梅岭卫生院",
    "lng": 117.2700142,
    "lat": 23.66787066,
    "value": 70
  },
  {
    "name": "庙前镇卫生院",
    "lng": 116.687023,
    "lat": 25.33289998,
    "value": 70
  },
  {
    "name": "霞浦县妇幼保健院",
    "lng": 120.013181,
    "lat": 26.89211934,
    "value": 70
  },
  {
    "name": "惠安县妇幼保健院",
    "lng": 118.7973849,
    "lat": 25.02171228,
    "value": 70
  },
  {
    "name": "四都卫生院",
    "lng": 116.209552,
    "lat": 25.65964704,
    "value": 70
  },
  {
    "name": "内坑卫生院",
    "lng": 118.4741,
    "lat": 24.76863205,
    "value": 70
  },
  {
    "name": "邵武市人民医院",
    "lng": 117.4923507,
    "lat": 27.33945895,
    "value": 70
  },
  {
    "name": "长汀县庵杰卫生院",
    "lng": 116.471777,
    "lat": 25.96331097,
    "value": 70
  },
  {
    "name": "延平区王台中心卫生院",
    "lng": 117.980486,
    "lat": 26.64153033,
    "value": 70
  },
  {
    "name": "福建中医药大学附属第三人民医院",
    "lng": 119.19195,
    "lat": 26.08220999,
    "value": 70
  },
  {
    "name": "尤溪县西滨中心卫生院",
    "lng": 118.39139,
    "lat": 26.36968898,
    "value": 70
  },
  {
    "name": "邵武市立医院",
    "lng": 117.5028384,
    "lat": 27.34142735,
    "value": 70
  },
  {
    "name": "宝盖社区卫生服务中心",
    "lng": 118.66424,
    "lat": 24.75263399,
    "value": 70
  },
  {
    "name": "凤里社区卫生服务中心",
    "lng": 118.639974,
    "lat": 24.73177898,
    "value": 70
  },
  {
    "name": "福建农林大学医院",
    "lng": 119.2472423,
    "lat": 26.08816482,
    "value": 70
  },
  {
    "name": "晋江市医院(晋南分院)",
    "lng": 118.636675,
    "lat": 24.65808101,
    "value": 70
  },
  {
    "name": "武平县万安卫生院",
    "lng": 116.103482,
    "lat": 25.134398,
    "value": 70
  },
  {
    "name": "铜陵社区卫生服务中心",
    "lng": 117.5309296,
    "lat": 23.74005884,
    "value": 70
  },
  {
    "name": "沙县大洛中心卫生院",
    "lng": 117.801381,
    "lat": 26.25200695,
    "value": 70
  },
  {
    "name": "尤溪县城东社区卫生服务中心",
    "lng": 118.2004966,
    "lat": 26.18062049,
    "value": 70
  },
  {
    "name": "三明市梅列区陈大卫生院",
    "lng": 117.657059,
    "lat": 26.31890296,
    "value": 70
  },
  {
    "name": "连江县丹阳镇中心卫生院",
    "lng": 119.4915021,
    "lat": 26.3544052,
    "value": 70
  },
  {
    "name": "武曲卫生院",
    "lng": 119.579028,
    "lat": 27.23661395,
    "value": 70
  },
  {
    "name": "辋川卫生院",
    "lng": 118.866065,
    "lat": 25.08033501,
    "value": 70
  },
  {
    "name": "福州市第二医院",
    "lng": 119.3266286,
    "lat": 26.05213149,
    "value": 70
  },
  {
    "name": "石狮市妇幼保健院",
    "lng": 118.660965,
    "lat": 24.73365601,
    "value": 70
  },
  {
    "name": "魁斗卫生院",
    "lng": 118.167072,
    "lat": 25.136046,
    "value": 70
  },
  {
    "name": "鸿山镇卫生院",
    "lng": 118.759384,
    "lat": 24.75007116,
    "value": 70
  },
  {
    "name": "仁爱医院",
    "lng": 118.871153,
    "lat": 25.13139397,
    "value": 70
  },
  {
    "name": "三洲卫生院",
    "lng": 116.394563,
    "lat": 25.60073198,
    "value": 70
  },
  {
    "name": "沙县中医院",
    "lng": 117.809122,
    "lat": 26.39335501,
    "value": 70
  },
  {
    "name": "泉州市丰泽区丰泽街道社区卫生服务中心",
    "lng": 118.612775,
    "lat": 24.89611404,
    "value": 70
  },
  {
    "name": "南安市盐务局医院",
    "lng": 118.358305,
    "lat": 24.59389399,
    "value": 70
  },
  {
    "name": "晋江市磁灶中心卫生院",
    "lng": 118.4878933,
    "lat": 24.82659859,
    "value": 70
  },
  {
    "name": "龙岩市永定区虎岗镇卫生院",
    "lng": 116.801233,
    "lat": 24.998188,
    "value": 70
  },
  {
    "name": "东平卫生院",
    "lng": 118.3445645,
    "lat": 25.3113158,
    "value": 70
  },
  {
    "name": "寿宁县中医院",
    "lng": 119.512339,
    "lat": 27.46647201,
    "value": 70
  },
  {
    "name": "洪濑中心卫生院",
    "lng": 118.5288751,
    "lat": 25.07750072,
    "value": 70
  },
  {
    "name": "南平市延平区峡阳镇卫生院",
    "lng": 118.005455,
    "lat": 26.775134,
    "value": 70
  },
  {
    "name": "官桥医院",
    "lng": 118.4306802,
    "lat": 24.8146626,
    "value": 70
  },
  {
    "name": "螺阳卫生院",
    "lng": 118.799278,
    "lat": 25.00609502,
    "value": 70
  },
  {
    "name": "惠铭医院",
    "lng": 119.395017,
    "lat": 25.72888596,
    "value": 70
  },
  {
    "name": "大田县湖美乡卫生院",
    "lng": 117.941684,
    "lat": 25.80629297,
    "value": 70
  },
  {
    "name": "盖山镇卫生院",
    "lng": 119.3393649,
    "lat": 26.02397316,
    "value": 70
  },
  {
    "name": "县医院",
    "lng": 116.7367035,
    "lat": 24.73265871,
    "value": 70
  },
  {
    "name": "连江县凤城镇社区卫生服务中心",
    "lng": 119.548898,
    "lat": 26.20438802,
    "value": 70
  },
  {
    "name": "仓山区仓前社区卫生服务中心",
    "lng": 119.322129,
    "lat": 26.04981099,
    "value": 70
  },
  {
    "name": "凤岗街道城区社区卫生服务中心",
    "lng": 117.7948734,
    "lat": 26.39968078,
    "value": 70
  },
  {
    "name": "埔上卫生院",
    "lng": 117.7787218,
    "lat": 26.93756806,
    "value": 70
  },
  {
    "name": "沙县南霞卫生院",
    "lng": 117.887426,
    "lat": 26.28281295,
    "value": 70
  },
  {
    "name": "新塘社区卫生服务中心",
    "lng": 118.602463,
    "lat": 24.78644102,
    "value": 70
  },
  {
    "name": "林坊镇卫生院",
    "lng": 116.73583,
    "lat": 25.69415202,
    "value": 70
  },
  {
    "name": "沙县总医院",
    "lng": 117.796578,
    "lat": 26.4071831,
    "value": 70
  },
  {
    "name": "常山华侨农场医院",
    "lng": 117.3955944,
    "lat": 23.83831606,
    "value": 70
  },
  {
    "name": "岩前镇卫生院",
    "lng": 117.467385,
    "lat": 26.26671401,
    "value": 70
  },
  {
    "name": "武平县桃溪中心卫生院",
    "lng": 116.198053,
    "lat": 25.36894699,
    "value": 70
  },
  {
    "name": "泉州市洛江区马甲中心卫生院",
    "lng": 118.627181,
    "lat": 25.12263899,
    "value": 70
  },
  {
    "name": "感德医院",
    "lng": 117.8645314,
    "lat": 25.30643046,
    "value": 70
  },
  {
    "name": "红坊社区卫生服务中心",
    "lng": 116.9745,
    "lat": 25.03432903,
    "value": 70
  },
  {
    "name": "托溪卫生院",
    "lng": 119.377813,
    "lat": 27.44588698,
    "value": 70
  },
  {
    "name": "惠和医院",
    "lng": 119.388158,
    "lat": 25.73247401,
    "value": 70
  },
  {
    "name": "晋江市安海医院",
    "lng": 118.471297,
    "lat": 24.72401002,
    "value": 70
  },
  {
    "name": "福建省永定区坎市医院",
    "lng": 116.898962,
    "lat": 24.91936402,
    "value": 70
  },
  {
    "name": "古雷卫生院",
    "lng": 117.650235,
    "lat": 23.93628904,
    "value": 70
  },
  {
    "name": "胡坊镇卫生院",
    "lng": 117.2443479,
    "lat": 26.22030098,
    "value": 70
  },
  {
    "name": "长坑卫生院",
    "lng": 117.881052,
    "lat": 25.19933797,
    "value": 70
  },
  {
    "name": "梅仙医院",
    "lng": 118.25944,
    "lat": 26.24059302,
    "value": 70
  },
  {
    "name": "长乐区医院",
    "lng": 119.526387,
    "lat": 25.96531301,
    "value": 70
  },
  {
    "name": "周宁玛坑卫生院",
    "lng": 119.4410224,
    "lat": 26.98661223,
    "value": 70
  },
  {
    "name": "石狮现代医院",
    "lng": 118.636509,
    "lat": 24.75161633,
    "value": 70
  },
  {
    "name": "童坊卫生院",
    "lng": 116.567745,
    "lat": 25.80846196,
    "value": 70
  },
  {
    "name": "下党卫生院",
    "lng": 119.318348,
    "lat": 27.41681395,
    "value": 70
  },
  {
    "name": "涂寨卫生院",
    "lng": 118.839207,
    "lat": 24.98811605,
    "value": 70
  },
  {
    "name": "武平县永平卫生院",
    "lng": 116.126511,
    "lat": 25.28561801,
    "value": 70
  },
  {
    "name": "荆溪镇卫生院",
    "lng": 119.188855,
    "lat": 26.13309895,
    "value": 70
  },
  {
    "name": "铁山卫生院",
    "lng": 117.065046,
    "lat": 25.14203797,
    "value": 70
  },
  {
    "name": "火田卫生院",
    "lng": 117.3895018,
    "lat": 24.01364744,
    "value": 70
  },
  {
    "name": "上杭县通贤镇卫生院",
    "lng": 116.469328,
    "lat": 25.30091299,
    "value": 70
  },
  {
    "name": "大田县屏山乡卫生院",
    "lng": 117.908859,
    "lat": 25.59814101,
    "value": 70
  },
  {
    "name": "福鼎市医院",
    "lng": 120.2229664,
    "lat": 27.32802322,
    "value": 70
  },
  {
    "name": "眉山乡卫生院",
    "lng": 118.317392,
    "lat": 25.09308997,
    "value": 70
  },
  {
    "name": "泉州市中医联合医院",
    "lng": 118.5566347,
    "lat": 24.91331812,
    "value": 70
  },
  {
    "name": "西园街道社区卫生服务中心",
    "lng": 118.5536092,
    "lat": 24.82271869,
    "value": 70
  },
  {
    "name": "海滨街道社区卫生服务中心",
    "lng": 118.5887941,
    "lat": 24.91275666,
    "value": 70
  },
  {
    "name": "晋江市安海镇卫生院",
    "lng": 118.4653045,
    "lat": 24.7219382,
    "value": 70
  },
  {
    "name": "尤溪县西城镇卫生院",
    "lng": 118.159426,
    "lat": 26.16432801,
    "value": 70
  },
  {
    "name": "盘陀卫生院",
    "lng": 117.512014,
    "lat": 24.07520801,
    "value": 70
  },
  {
    "name": "桃舟卫生院",
    "lng": 117.7799209,
    "lat": 25.3582332,
    "value": 70
  },
  {
    "name": "仑苍镇卫生院",
    "lng": 118.291482,
    "lat": 25.01149198,
    "value": 70
  },
  {
    "name": "福州市仓山区城门镇卫生院",
    "lng": 119.374685,
    "lat": 25.99902002,
    "value": 70
  },
  {
    "name": "丰州卫生院",
    "lng": 118.5468299,
    "lat": 24.95991052,
    "value": 70
  },
  {
    "name": "临江街道社区卫生服务中心",
    "lng": 119.334723,
    "lat": 26.05171099,
    "value": 70
  },
  {
    "name": "水部街道社区卫生服务中心",
    "lng": 119.3233239,
    "lat": 26.08309791,
    "value": 70
  },
  {
    "name": "蓝田卫生院",
    "lng": 117.8856921,
    "lat": 25.13848958,
    "value": 70
  },
  {
    "name": "下浒卫生院",
    "lng": 119.963141,
    "lat": 26.61405098,
    "value": 70
  },
  {
    "name": "罗坊乡卫生院",
    "lng": 116.699531,
    "lat": 25.75534203,
    "value": 70
  },
  {
    "name": "南安市柳城街道社区卫生服务中心",
    "lng": 118.4034272,
    "lat": 24.946165,
    "value": 70
  },
  {
    "name": "龙岩市永定陈东乡卫生院",
    "lng": 116.918711,
    "lat": 24.722481,
    "value": 70
  },
  {
    "name": "曲溪乡卫生院",
    "lng": 116.926311,
    "lat": 25.65740398,
    "value": 70
  },
  {
    "name": "青阳卫生服务中心",
    "lng": 118.5874152,
    "lat": 24.81353846,
    "value": 70
  },
  {
    "name": "南平市延平区西芹镇中心卫生院",
    "lng": 118.125831,
    "lat": 26.576141,
    "value": 70
  },
  {
    "name": "福清市第三医院",
    "lng": 119.31961,
    "lat": 25.705903,
    "value": 70
  },
  {
    "name": "坂仔中心卫生院",
    "lng": 117.271567,
    "lat": 24.28980302,
    "value": 70
  },
  {
    "name": "官浔中心卫生院",
    "lng": 117.757776,
    "lat": 24.32514903,
    "value": 70
  },
  {
    "name": "福建省立医院(金山院区)",
    "lng": 119.2769961,
    "lat": 26.04605877,
    "value": 70
  },
  {
    "name": "江南卫生所",
    "lng": 119.547682,
    "lat": 26.19440699,
    "value": 70
  },
  {
    "name": "锦尚镇卫生院",
    "lng": 118.726005,
    "lat": 24.72816103,
    "value": 70
  },
  {
    "name": "福建医科大学附一闽南医院",
    "lng": 118.939333,
    "lat": 25.12931099,
    "value": 70
  },
  {
    "name": "盐田卫生院",
    "lng": 119.867971,
    "lat": 26.85416998,
    "value": 70
  },
  {
    "name": "福建省泉州市第一医院(城东分院)",
    "lng": 118.673259,
    "lat": 24.92967799,
    "value": 70
  },
  {
    "name": "南街社区卫生服务中心",
    "lng": 119.3039652,
    "lat": 26.09182052,
    "value": 70
  },
  {
    "name": "大田县奇韬镇卫生院",
    "lng": 117.879314,
    "lat": 26.05745195,
    "value": 70
  },
  {
    "name": "南安市妇幼保健院新院",
    "lng": 118.395258,
    "lat": 24.95624804,
    "value": 70
  },
  {
    "name": "南胜镇卫生院",
    "lng": 117.374656,
    "lat": 24.23140404,
    "value": 70
  },
  {
    "name": "陈城卫生院",
    "lng": 117.39269,
    "lat": 23.60445604,
    "value": 70
  },
  {
    "name": "永宁镇卫生院",
    "lng": 118.697271,
    "lat": 24.68703401,
    "value": 70
  },
  {
    "name": "上坪卫生院",
    "lng": 117.5183339,
    "lat": 25.96672025,
    "value": 70
  },
  {
    "name": "武平县中堡卫生院",
    "lng": 116.275149,
    "lat": 25.20175804,
    "value": 70
  },
  {
    "name": "惠安县中医院",
    "lng": 118.7937315,
    "lat": 25.03453127,
    "value": 70
  },
  {
    "name": "南安市医院",
    "lng": 118.389283,
    "lat": 24.95962798,
    "value": 70
  },
  {
    "name": "福建省福州肺科医院",
    "lng": 119.3028311,
    "lat": 26.03238281,
    "value": 70
  },
  {
    "name": "福州福兴妇产医院",
    "lng": 119.3601168,
    "lat": 26.07804823,
    "value": 70
  },
  {
    "name": "大甲卫生院",
    "lng": 119.2877862,
    "lat": 26.64237598,
    "value": 70
  },
  {
    "name": "建瓯市南雅中心卫生院",
    "lng": 118.319886,
    "lat": 26.873936,
    "value": 70
  },
  {
    "name": "福建省建新医院",
    "lng": 119.2814512,
    "lat": 26.09262547,
    "value": 70
  },
  {
    "name": "福建省福州儿童医院",
    "lng": 119.3105844,
    "lat": 26.07890949,
    "value": 70
  },
  {
    "name": "周宁县医院",
    "lng": 119.349068,
    "lat": 27.10956599,
    "value": 70
  },
  {
    "name": "安溪海波医院",
    "lng": 118.041153,
    "lat": 25.23606002,
    "value": 70
  },
  {
    "name": "建阳区妇幼保健院",
    "lng": 118.1284907,
    "lat": 27.33915971,
    "value": 70
  },
  {
    "name": "泉州市第一医院",
    "lng": 118.604332,
    "lat": 24.91836602,
    "value": 70
  },
  {
    "name": "沙县高砂卫生院",
    "lng": 117.917128,
    "lat": 26.43028199,
    "value": 70
  },
  {
    "name": "涂岭镇卫生院",
    "lng": 118.852709,
    "lat": 25.18478098,
    "value": 70
  },
  {
    "name": "闽侯县人民医院",
    "lng": 119.3831368,
    "lat": 25.90319005,
    "value": 70
  },
  {
    "name": "城东街道社区卫生服务中心",
    "lng": 118.65526,
    "lat": 24.92944101,
    "value": 70
  },
  {
    "name": "尤溪县台溪乡卫生院",
    "lng": 118.259103,
    "lat": 26.10826299,
    "value": 70
  },
  {
    "name": "漳浦县第二医院",
    "lng": 117.918454,
    "lat": 24.18384698,
    "value": 70
  },
  {
    "name": "施雄医院",
    "lng": 118.8329758,
    "lat": 24.99612966,
    "value": 70
  },
  {
    "name": "长汀县南山卫生院",
    "lng": 116.513139,
    "lat": 25.60210002,
    "value": 70
  },
  {
    "name": "安溪佑康医院",
    "lng": 118.2016672,
    "lat": 25.05156939,
    "value": 70
  },
  {
    "name": "福州永泰东南医院",
    "lng": 118.9640137,
    "lat": 25.86945172,
    "value": 70
  },
  {
    "name": "莆美卫生院",
    "lng": 117.3512402,
    "lat": 23.93555918,
    "value": 70
  },
  {
    "name": "宣成卫生院",
    "lng": 116.3957,
    "lat": 25.41324898,
    "value": 70
  },
  {
    "name": "江山卫生院",
    "lng": 116.983875,
    "lat": 25.18029498,
    "value": 70
  },
  {
    "name": "南安市英都中心卫生院",
    "lng": 118.2605192,
    "lat": 24.97597533,
    "value": 70
  },
  {
    "name": "浮宫中心卫生院",
    "lng": 117.927305,
    "lat": 24.35910505,
    "value": 70
  },
  {
    "name": "东肖社区卫生服务中心",
    "lng": 117.019355,
    "lat": 25.02946102,
    "value": 70
  },
  {
    "name": "福建省中医药大学附属人民医院",
    "lng": 119.311039,
    "lat": 26.06759695,
    "value": 70
  },
  {
    "name": "霞美医院",
    "lng": 118.4901243,
    "lat": 24.93865316,
    "value": 70
  },
  {
    "name": "曹溪社区卫生服务中心",
    "lng": 117.0336125,
    "lat": 25.07069797,
    "value": 70
  },
  {
    "name": "大湖卫生院",
    "lng": 119.0996969,
    "lat": 26.3684205,
    "value": 70
  },
  {
    "name": "松港社区卫生服务中心",
    "lng": 120.025056,
    "lat": 26.88990797,
    "value": 70
  },
  {
    "name": "张坂镇卫生院",
    "lng": 118.8076632,
    "lat": 24.90972158,
    "value": 70
  },
  {
    "name": "上杭县官庄畲族乡中心卫生院",
    "lng": 116.349358,
    "lat": 25.30945102,
    "value": 70
  },
  {
    "name": "霞美卫生院",
    "lng": 117.688121,
    "lat": 23.99606001,
    "value": 70
  },
  {
    "name": "福州市精神病人疗养院",
    "lng": 119.3062805,
    "lat": 26.03882243,
    "value": 70
  },
  {
    "name": "三溪卫生院",
    "lng": 118.825508,
    "lat": 26.11167198,
    "value": 70
  },
  {
    "name": "洪山镇社区卫生服务中心",
    "lng": 119.287882,
    "lat": 26.07984798,
    "value": 70
  },
  {
    "name": "永定区中医院",
    "lng": 116.7399586,
    "lat": 24.72585485,
    "value": 70
  },
  {
    "name": "福建省地质医院(福建省华侨医院)",
    "lng": 119.355769,
    "lat": 26.01286697,
    "value": 70
  },
  {
    "name": "港尾卫生院",
    "lng": 118.0148217,
    "lat": 24.31966771,
    "value": 70
  },
  {
    "name": "漳州古雷港区医院",
    "lng": 117.619215,
    "lat": 23.95334601,
    "value": 70
  },
  {
    "name": "馆前卫生院",
    "lng": 116.549531,
    "lat": 25.93791601,
    "value": 70
  },
  {
    "name": "云霄县东厦镇卫生院",
    "lng": 117.3886651,
    "lat": 23.95248754,
    "value": 70
  },
  {
    "name": "福建省明溪县医院",
    "lng": 117.2113451,
    "lat": 26.36088795,
    "value": 70
  },
  {
    "name": "四堡镇卫生院",
    "lng": 116.714105,
    "lat": 25.90011896,
    "value": 70
  },
  {
    "name": "云霄县云陵社区卫生服务中心",
    "lng": 117.337722,
    "lat": 23.95561502,
    "value": 70
  },
  {
    "name": "福州现代妇产医院",
    "lng": 119.301425,
    "lat": 26.11474503,
    "value": 70
  },
  {
    "name": "城关社区卫生计生服务中心",
    "lng": 118.194336,
    "lat": 25.05858499,
    "value": 70
  },
  {
    "name": "龙岩市永定区湖坑镇中心卫生院",
    "lng": 116.959287,
    "lat": 24.65318799,
    "value": 70
  },
  {
    "name": "万安社区卫生服务中心",
    "lng": 118.6731646,
    "lat": 24.94437862,
    "value": 70
  },
  {
    "name": "凤都卫生院",
    "lng": 118.66246,
    "lat": 26.62230995,
    "value": 70
  },
  {
    "name": "梅山卫生院",
    "lng": 118.4779718,
    "lat": 25.12322254,
    "value": 70
  },
  {
    "name": "深土中心卫生院",
    "lng": 117.814874,
    "lat": 24.07219705,
    "value": 70
  },
  {
    "name": "蚶江镇卫生院",
    "lng": 118.7027482,
    "lat": 24.7910823,
    "value": 70
  },
  {
    "name": "福清市妇幼保健院",
    "lng": 119.3563617,
    "lat": 25.71382895,
    "value": 70
  },
  {
    "name": "东桥卫生院",
    "lng": 118.910007,
    "lat": 25.01728497,
    "value": 70
  },
  {
    "name": "福建医科大学附属协和医院",
    "lng": 119.3105859,
    "lat": 26.08402761,
    "value": 70
  },
  {
    "name": "福清市南岭镇卫生院",
    "lng": 119.5112164,
    "lat": 25.77617751,
    "value": 70
  },
  {
    "name": "古竹乡卫生院",
    "lng": 116.9923721,
    "lat": 24.70299571,
    "value": 70
  },
  {
    "name": "武平县十方中心卫生院",
    "lng": 116.237608,
    "lat": 25.039596,
    "value": 70
  },
  {
    "name": "南平市第二医院",
    "lng": 118.125762,
    "lat": 27.33142501,
    "value": 70
  },
  {
    "name": "长汀县妇幼保健院",
    "lng": 116.373886,
    "lat": 25.84180499,
    "value": 70
  },
  {
    "name": "虹山医院",
    "lng": 118.599619,
    "lat": 25.27661497,
    "value": 70
  },
  {
    "name": "永安市曹远卫生院",
    "lng": 117.343641,
    "lat": 26.03417199,
    "value": 70
  },
  {
    "name": "高山镇中心卫生院",
    "lng": 119.582897,
    "lat": 25.469409,
    "value": 70
  },
  {
    "name": "朋口镇中心卫生院",
    "lng": 116.698133,
    "lat": 25.53014902,
    "value": 70
  },
  {
    "name": "罗东中心卫生院",
    "lng": 118.516233,
    "lat": 25.16879298,
    "value": 70
  },
  {
    "name": "三明市梅列区洋溪卫生院",
    "lng": 117.736896,
    "lat": 26.31410698,
    "value": 70
  },
  {
    "name": "东湖镇卫生院",
    "lng": 119.526414,
    "lat": 26.23821399,
    "value": 70
  },
  {
    "name": "东石中心卫生院",
    "lng": 118.482841,
    "lat": 24.66934305,
    "value": 70
  },
  {
    "name": "福州市仓山区下渡街道社区卫生服务中心",
    "lng": 119.340638,
    "lat": 26.05021697,
    "value": 70
  },
  {
    "name": "建阳麻沙中心卫生院",
    "lng": 117.842973,
    "lat": 27.39815013,
    "value": 70
  },
  {
    "name": "翔云卫生院",
    "lng": 118.1728786,
    "lat": 24.97030377,
    "value": 70
  },
  {
    "name": "东南眼科医院",
    "lng": 119.393564,
    "lat": 25.705896,
    "value": 70
  },
  {
    "name": "南平市延平区夏道镇中心卫生院",
    "lng": 118.278488,
    "lat": 26.58011298,
    "value": 70
  },
  {
    "name": "石狮市祥芝镇卫生院",
    "lng": 118.7781914,
    "lat": 24.76888944,
    "value": 70
  },
  {
    "name": "晋安区医院",
    "lng": 119.3426273,
    "lat": 26.07451744,
    "value": 70
  },
  {
    "name": "尚卿卫生院",
    "lng": 117.974847,
    "lat": 25.11184801,
    "value": 70
  },
  {
    "name": "三元区中村乡卫生院",
    "lng": 117.673113,
    "lat": 26.17686198,
    "value": 70
  },
  {
    "name": "水门卫生院",
    "lng": 120.0827347,
    "lat": 26.97075648,
    "value": 70
  },
  {
    "name": "尤溪县医院",
    "lng": 118.1927042,
    "lat": 26.17688646,
    "value": 70
  },
  {
    "name": "东山县樟塘卫生院",
    "lng": 117.4587972,
    "lat": 23.72146988,
    "value": 70
  },
  {
    "name": "龙涓中心卫生院",
    "lng": 117.742533,
    "lat": 24.96583103,
    "value": 70
  },
  {
    "name": "西滨镇卫生院",
    "lng": 118.633104,
    "lat": 24.803544,
    "value": 70
  },
  {
    "name": "临城镇卫生院",
    "lng": 116.4136208,
    "lat": 25.0595595,
    "value": 70
  },
  {
    "name": "南平市妇幼保健院",
    "lng": 118.1896484,
    "lat": 26.64605566,
    "value": 70
  },
  {
    "name": "三明市中西医结合医院",
    "lng": 117.60949,
    "lat": 26.23856098,
    "value": 70
  },
  {
    "name": "安溪县城厢卫生院",
    "lng": 118.200954,
    "lat": 25.05531598,
    "value": 70
  },
  {
    "name": "武平县中山中心卫生院",
    "lng": 116.047103,
    "lat": 25.031599,
    "value": 70
  },
  {
    "name": "三元区岩前镇星桥卫生院",
    "lng": 117.394589,
    "lat": 26.22008301,
    "value": 70
  },
  {
    "name": "永定县大溪华侨医院",
    "lng": 116.917448,
    "lat": 24.63337798,
    "value": 70
  },
  {
    "name": "龙岩市永定区合溪乡卫生院",
    "lng": 116.73625,
    "lat": 24.880426,
    "value": 70
  },
  {
    "name": "闽清县梅城卫生院",
    "lng": 118.8709143,
    "lat": 26.22700124,
    "value": 70
  },
  {
    "name": "沙县南阳中心卫生院",
    "lng": 117.97955,
    "lat": 26.359368,
    "value": 70
  },
  {
    "name": "华大街道社区卫生服务中心",
    "lng": 119.2995591,
    "lat": 26.10298169,
    "value": 70
  },
  {
    "name": "福清市江镜镇卫生院",
    "lng": 119.434649,
    "lat": 25.56284697,
    "value": 70
  },
  {
    "name": "成功医院",
    "lng": 118.5748605,
    "lat": 24.90056058,
    "value": 70
  },
  {
    "name": "牙城医院",
    "lng": 120.1994204,
    "lat": 26.98772473,
    "value": 70
  },
  {
    "name": "四都中心卫生院",
    "lng": 117.281828,
    "lat": 23.79064698,
    "value": 70
  },
  {
    "name": "参内卫生院",
    "lng": 118.227291,
    "lat": 25.08260799,
    "value": 70
  },
  {
    "name": "泉州市正骨医院",
    "lng": 118.6097904,
    "lat": 24.88941266,
    "value": 70
  },
  {
    "name": "三明市第二医院",
    "lng": 117.3723862,
    "lat": 25.98101787,
    "value": 70
  },
  {
    "name": "云霄县医院",
    "lng": 117.3418654,
    "lat": 23.96207227,
    "value": 70
  },
  {
    "name": "福州市第六医院",
    "lng": 119.3209077,
    "lat": 26.07134126,
    "value": 70
  },
  {
    "name": "安溪县铭选医院",
    "lng": 118.187984,
    "lat": 25.05702897,
    "value": 70
  },
  {
    "name": "东岭镇中心卫生院",
    "lng": 118.9111328,
    "lat": 24.98533397,
    "value": 70
  },
  {
    "name": "龙岩市永定区岐岭镇卫生院",
    "lng": 116.89089,
    "lat": 24.669247,
    "value": 70
  },
  {
    "name": "南屿良浩医院",
    "lng": 119.2322092,
    "lat": 25.97770142,
    "value": 70
  },
  {
    "name": "霞浦县崇儒卫生院",
    "lng": 119.942684,
    "lat": 26.95077646,
    "value": 70
  },
  {
    "name": "石狮子英医院",
    "lng": 118.6818508,
    "lat": 24.70702752,
    "value": 70
  },
  {
    "name": "石狮振狮医院",
    "lng": 118.6325511,
    "lat": 24.74943217,
    "value": 70
  },
  {
    "name": "犀溪卫生院",
    "lng": 119.647603,
    "lat": 27.46500998,
    "value": 70
  },
  {
    "name": "永安市燕西街道社区卫生服务中心",
    "lng": 117.364758,
    "lat": 25.97621701,
    "value": 70
  },
  {
    "name": "龙岩市永定区湖山乡卫生院",
    "lng": 116.883354,
    "lat": 24.47357803,
    "value": 70
  },
  {
    "name": "东田卫生院",
    "lng": 118.300094,
    "lat": 24.91208001,
    "value": 70
  },
  {
    "name": "长汀县策武卫生院",
    "lng": 116.361725,
    "lat": 25.73357103,
    "value": 70
  },
  {
    "name": "山腰街道社区卫生服务中心(华侨医院)龙山社区第一卫生所",
    "lng": 118.9218241,
    "lat": 25.14058639,
    "value": 70
  },
  {
    "name": "大干卫生院",
    "lng": 117.7473099,
    "lat": 26.93901463,
    "value": 70
  },
  {
    "name": "六鳌卫生院",
    "lng": 117.764605,
    "lat": 23.94750302,
    "value": 70
  },
  {
    "name": "大田县广平镇卫生院",
    "lng": 117.83303,
    "lat": 26.09619302,
    "value": 70
  },
  {
    "name": "福州市第二医院(马尾分院)",
    "lng": 119.463768,
    "lat": 25.99970497,
    "value": 70
  },
  {
    "name": "古田县中医院",
    "lng": 118.7625248,
    "lat": 26.58629268,
    "value": 70
  },
  {
    "name": "建瓯市房道中心卫生院",
    "lng": 118.138059,
    "lat": 27.01730395,
    "value": 70
  },
  {
    "name": "泉州市儿童医院(泉港分院)",
    "lng": 118.9194185,
    "lat": 25.13733277,
    "value": 70
  },
  {
    "name": "溪南中心卫生院",
    "lng": 119.86377,
    "lat": 26.72213098,
    "value": 70
  },
  {
    "name": "县中医院",
    "lng": 116.423799,
    "lat": 25.0589173,
    "value": 70
  },
  {
    "name": "博爱医院",
    "lng": 117.0310843,
    "lat": 25.08575657,
    "value": 70
  },
  {
    "name": "云霄县妇幼保健院",
    "lng": 117.33877,
    "lat": 23.94581406,
    "value": 70
  },
  {
    "name": "福清市一都镇卫生院",
    "lng": 119.204035,
    "lat": 25.778614,
    "value": 70
  },
  {
    "name": "卓洋卫生院",
    "lng": 119.0328367,
    "lat": 26.63262857,
    "value": 70
  },
  {
    "name": "斜滩中心卫生院",
    "lng": 119.543397,
    "lat": 27.319784,
    "value": 70
  },
  {
    "name": "南平市第一医院",
    "lng": 118.1823372,
    "lat": 26.63733615,
    "value": 70
  },
  {
    "name": "弘润医院",
    "lng": 118.7575565,
    "lat": 24.89917158,
    "value": 70
  },
  {
    "name": "石狮市华侨医院分院",
    "lng": 118.640765,
    "lat": 24.73801,
    "value": 70
  },
  {
    "name": "福州市皮肤病防治院",
    "lng": 119.290361,
    "lat": 26.09134898,
    "value": 70
  },
  {
    "name": "龙岩市永定区高头乡卫生院",
    "lng": 117.02269,
    "lat": 24.66537002,
    "value": 70
  },
  {
    "name": "龙海市白水中心卫生院",
    "lng": 117.8777854,
    "lat": 24.33475091,
    "value": 70
  },
  {
    "name": "白樟卫生院",
    "lng": 118.812363,
    "lat": 26.18392198,
    "value": 70
  },
  {
    "name": "福清市宏路街道社区卫生服务中心",
    "lng": 119.3222985,
    "lat": 25.70522829,
    "value": 70
  },
  {
    "name": "福州台江医院",
    "lng": 119.3212339,
    "lat": 26.06248403,
    "value": 70
  },
  {
    "name": "湖西卫生院",
    "lng": 117.829462,
    "lat": 24.182549,
    "value": 70
  },
  {
    "name": "南埔中心卫生院",
    "lng": 118.919143,
    "lat": 25.19534401,
    "value": 70
  },
  {
    "name": "甘蔗街道社区卫生服务中心",
    "lng": 119.154804,
    "lat": 26.15130897,
    "value": 70
  },
  {
    "name": "福州神康医院",
    "lng": 119.3028894,
    "lat": 26.15089199,
    "value": 70
  },
  {
    "name": "连江县中医院",
    "lng": 119.542603,
    "lat": 26.20921201,
    "value": 70
  },
  {
    "name": "连江县医院",
    "lng": 119.542141,
    "lat": 26.20030798,
    "value": 70
  },
  {
    "name": "闽侯县医院",
    "lng": 119.167138,
    "lat": 26.15216401,
    "value": 70
  },
  {
    "name": "后龙镇卫生院",
    "lng": 118.938834,
    "lat": 25.14754597,
    "value": 70
  },
  {
    "name": "尤溪县溪尾中心卫生院",
    "lng": 118.3875276,
    "lat": 26.1921395,
    "value": 70
  },
  {
    "name": "山霞卫生院",
    "lng": 118.8923484,
    "lat": 24.9442094,
    "value": 70
  },
  {
    "name": "福安市中医院",
    "lng": 119.6562001,
    "lat": 27.09050641,
    "value": 70
  },
  {
    "name": "长春中心卫生院",
    "lng": 120.0506953,
    "lat": 26.73066357,
    "value": 70
  },
  {
    "name": "上杭县稔田镇卫生院",
    "lng": 116.614228,
    "lat": 24.85324902,
    "value": 70
  },
  {
    "name": "永安市西洋卫生院",
    "lng": 117.447877,
    "lat": 25.81671697,
    "value": 70
  },
  {
    "name": "清源卫生院",
    "lng": 119.501008,
    "lat": 27.402501,
    "value": 70
  },
  {
    "name": "玉屏街道社区卫生中心",
    "lng": 119.3885661,
    "lat": 25.72412828,
    "value": 70
  },
  {
    "name": "南浦卫生院",
    "lng": 117.56072,
    "lat": 24.25855998,
    "value": 70
  },
  {
    "name": "湖上医院",
    "lng": 117.9845757,
    "lat": 25.25630837,
    "value": 70
  },
  {
    "name": "南平市延平区南山镇卫生院",
    "lng": 118.341269,
    "lat": 26.61846695,
    "value": 70
  },
  {
    "name": "鳌峰街道社区卫生服务中心",
    "lng": 119.355044,
    "lat": 26.06322297,
    "value": 70
  },
  {
    "name": "连江济雅医院",
    "lng": 119.5353948,
    "lat": 26.20011777,
    "value": 70
  },
  {
    "name": "石狮市灵秀社区卫生服务中心(豪百胜购物广场西北)",
    "lng": 118.6152958,
    "lat": 24.71803957,
    "value": 70
  },
  {
    "name": "徐碧街道社区卫生服务中心",
    "lng": 117.648675,
    "lat": 26.28510497,
    "value": 70
  },
  {
    "name": "泮境乡卫生院",
    "lng": 116.541977,
    "lat": 25.058271,
    "value": 70
  },
  {
    "name": "新罗区妇幼保健院",
    "lng": 117.045658,
    "lat": 25.10169102,
    "value": 70
  },
  {
    "name": "鼓楼区五凤街道湖前社区卫生服务站",
    "lng": 119.300499,
    "lat": 26.120502,
    "value": 70
  },
  {
    "name": "杏陈中心卫生院",
    "lng": 117.4028046,
    "lat": 23.75732543,
    "value": 70
  },
  {
    "name": "玉田镇中心卫生院",
    "lng": 119.468032,
    "lat": 25.87897802,
    "value": 70
  },
  {
    "name": "凤阳卫生院",
    "lng": 119.4802883,
    "lat": 27.23011718,
    "value": 70
  },
  {
    "name": "黄田卫生院",
    "lng": 118.626534,
    "lat": 26.43946894,
    "value": 70
  },
  {
    "name": "泉州市光前医院",
    "lng": 118.480923,
    "lat": 25.11203704,
    "value": 70
  },
  {
    "name": "仓山区仓山镇卫生院",
    "lng": 119.324675,
    "lat": 26.03949797,
    "value": 70
  },
  {
    "name": "福州市仓山区中医院",
    "lng": 119.305657,
    "lat": 26.04377401,
    "value": 70
  },
  {
    "name": "永定县抚市卫生院",
    "lng": 116.932984,
    "lat": 24.83882804,
    "value": 70
  },
  {
    "name": "长乐区罗联乡卫生院",
    "lng": 119.4810426,
    "lat": 25.8595201,
    "value": 70
  },
  {
    "name": "礼门卫生院",
    "lng": 119.218428,
    "lat": 27.04449598,
    "value": 70
  },
  {
    "name": "平溪中心卫生院",
    "lng": 119.338746,
    "lat": 27.34589599,
    "value": 70
  },
  {
    "name": "荆西街道社区卫生服务中心",
    "lng": 117.560742,
    "lat": 26.19531196,
    "value": 70
  },
  {
    "name": "永春县医院",
    "lng": 118.275296,
    "lat": 25.32474002,
    "value": 70
  },
  {
    "name": "长汀县涂坊中心卫生院",
    "lng": 116.468247,
    "lat": 25.47008799,
    "value": 70
  },
  {
    "name": "上杭县医院",
    "lng": 116.4169204,
    "lat": 25.05460208,
    "value": 70
  },
  {
    "name": "漳浦县医院",
    "lng": 117.6112069,
    "lat": 24.12438745,
    "value": 70
  },
  {
    "name": "三叉街社区卫生服务中心",
    "lng": 119.330366,
    "lat": 26.04402599,
    "value": 70
  },
  {
    "name": "经济开发区社区卫生服务中心",
    "lng": 118.550455,
    "lat": 24.71580804,
    "value": 70
  },
  {
    "name": "县医院(惠安分院)",
    "lng": 118.8039239,
    "lat": 25.0406985,
    "value": 70
  },
  {
    "name": "隆教畲族卫生院",
    "lng": 118.0736204,
    "lat": 24.26702071,
    "value": 70
  },
  {
    "name": "世道医院",
    "lng": 118.558746,
    "lat": 25.14075403,
    "value": 70
  },
  {
    "name": "大历镇卫生院",
    "lng": 118.0160231,
    "lat": 26.89001059,
    "value": 70
  },
  {
    "name": "福建医科大学孟超肝胆医院",
    "lng": 119.2863103,
    "lat": 26.09158455,
    "value": 70
  },
  {
    "name": "国强乡卫生院",
    "lng": 117.229186,
    "lat": 24.259513,
    "value": 70
  },
  {
    "name": "东山县医院",
    "lng": 117.4247334,
    "lat": 23.70834617,
    "value": 70
  },
  {
    "name": "蓝溪中心卫生院",
    "lng": 116.623406,
    "lat": 24.913092,
    "value": 70
  },
  {
    "name": "清源街道社区卫生服务中心",
    "lng": 118.5993239,
    "lat": 24.93135466,
    "value": 70
  },
  {
    "name": "大田县均溪医院",
    "lng": 117.853508,
    "lat": 25.69742817,
    "value": 70
  },
  {
    "name": "大坪卫生院",
    "lng": 117.98276,
    "lat": 24.89568902,
    "value": 70
  },
  {
    "name": "营前街道社区卫生服务中心",
    "lng": 119.4726159,
    "lat": 25.96924064,
    "value": 70
  },
  {
    "name": "杉洋卫生院",
    "lng": 119.212578,
    "lat": 26.672133,
    "value": 70
  },
  {
    "name": "泗桥卫生院",
    "lng": 119.223036,
    "lat": 27.17141997,
    "value": 70
  },
  {
    "name": "建瓯市徐墩中心卫生院",
    "lng": 118.246957,
    "lat": 27.13968901,
    "value": 70
  },
  {
    "name": "连城县揭乐卫生院",
    "lng": 116.792594,
    "lat": 25.7296,
    "value": 70
  },
  {
    "name": "尤溪县八字桥乡卫生院",
    "lng": 117.8655881,
    "lat": 26.18893762,
    "value": 70
  },
  {
    "name": "长汀县中医院",
    "lng": 116.3689567,
    "lat": 25.83688344,
    "value": 70
  },
  {
    "name": "长乐区航城街道社区卫生服务中心",
    "lng": 119.525432,
    "lat": 25.97012017,
    "value": 70
  },
  {
    "name": "福建省级机关医院",
    "lng": 119.3045337,
    "lat": 26.10086158,
    "value": 70
  },
  {
    "name": "岩山卫生院",
    "lng": 117.192828,
    "lat": 25.15483703,
    "value": 70
  },
  {
    "name": "连城县塘前卫生院",
    "lng": 116.862704,
    "lat": 25.771714,
    "value": 70
  },
  {
    "name": "尤溪县管前镇卫生院",
    "lng": 117.9721384,
    "lat": 26.18090022,
    "value": 70
  },
  {
    "name": "临江卫生服务中心",
    "lng": 118.5940764,
    "lat": 24.90241217,
    "value": 70
  },
  {
    "name": "南平市建阳第一医院",
    "lng": 118.1375866,
    "lat": 27.34012185,
    "value": 70
  },
  {
    "name": "金井医院",
    "lng": 118.611864,
    "lat": 24.58107705,
    "value": 70
  },
  {
    "name": "武平县城区社区卫生服务中心",
    "lng": 116.111058,
    "lat": 25.10271402,
    "value": 70
  },
  {
    "name": "上杭县白砂中心卫生院",
    "lng": 116.609148,
    "lat": 25.145726,
    "value": 70
  },
  {
    "name": "龙岩人民医院",
    "lng": 117.0361651,
    "lat": 25.09736178,
    "value": 70
  },
  {
    "name": "宣和乡卫生院",
    "lng": 116.650455,
    "lat": 25.61326297,
    "value": 70
  },
  {
    "name": "武平县中医院",
    "lng": 116.102158,
    "lat": 25.08757499,
    "value": 70
  },
  {
    "name": "旧镇卫生院",
    "lng": 117.713854,
    "lat": 24.05490233,
    "value": 70
  },
  {
    "name": "福清市三山镇中心卫生院",
    "lng": 119.523101,
    "lat": 25.53688198,
    "value": 70
  },
  {
    "name": "福清市龙田镇卫生院",
    "lng": 119.459932,
    "lat": 25.61633399,
    "value": 70
  },
  {
    "name": "英林中心卫生院",
    "lng": 118.596567,
    "lat": 24.63602404,
    "value": 70
  },
  {
    "name": "福清市城头镇卫生院",
    "lng": 119.525715,
    "lat": 25.70522504,
    "value": 70
  },
  {
    "name": "古田中心卫生院",
    "lng": 116.8309729,
    "lat": 25.23216287,
    "value": 70
  },
  {
    "name": "东桥卫生院",
    "lng": 118.90581,
    "lat": 26.37967097,
    "value": 70
  },
  {
    "name": "古槐镇中心卫生院",
    "lng": 119.553725,
    "lat": 25.88736401,
    "value": 70
  },
  {
    "name": "蓬莱华侨医院(安溪)",
    "lng": 118.1019815,
    "lat": 25.13714599,
    "value": 70
  },
  {
    "name": "大田县前坪乡卫生院",
    "lng": 117.87616,
    "lat": 25.84472698,
    "value": 70
  },
  {
    "name": "南平市延平区来舟镇卫生院",
    "lng": 117.993249,
    "lat": 26.63023196,
    "value": 70
  },
  {
    "name": "闽清县六都医院",
    "lng": 118.778393,
    "lat": 26.11380398,
    "value": 70
  },
  {
    "name": "云霄友好妇产医院",
    "lng": 117.3475963,
    "lat": 23.97136629,
    "value": 70
  },
  {
    "name": "明仁眼科医院",
    "lng": 118.189524,
    "lat": 25.05001999,
    "value": 70
  },
  {
    "name": "福建省立医院",
    "lng": 119.313187,
    "lat": 26.09391233,
    "value": 70
  },
  {
    "name": "文武砂卫生院",
    "lng": 119.5905861,
    "lat": 25.89982457,
    "value": 70
  },
  {
    "name": "双阳社区卫生服务中心",
    "lng": 118.620281,
    "lat": 25.00202802,
    "value": 70
  },
  {
    "name": "安溪县官桥医院",
    "lng": 118.0992403,
    "lat": 25.02724376,
    "value": 70
  },
  {
    "name": "台江区义洲街道社区卫生服务中心",
    "lng": 119.3038469,
    "lat": 26.05995447,
    "value": 70
  },
  {
    "name": "黄塘中心卫生院",
    "lng": 118.716047,
    "lat": 25.02170704,
    "value": 70
  },
  {
    "name": "上杭县步云乡卫生院",
    "lng": 116.869198,
    "lat": 25.27321097,
    "value": 70
  },
  {
    "name": "大田县医院",
    "lng": 117.860219,
    "lat": 25.70219116,
    "value": 70
  },
  {
    "name": "西坪医院",
    "lng": 117.952571,
    "lat": 25.02884501,
    "value": 70
  },
  {
    "name": "台江区洋中街道社区卫生服务中心",
    "lng": 119.3142765,
    "lat": 26.06352806,
    "value": 70
  },
  {
    "name": "泮洋卫生院",
    "lng": 118.844173,
    "lat": 26.55219802,
    "value": 70
  },
  {
    "name": "和平乡卫生院",
    "lng": 117.2761081,
    "lat": 23.95678489,
    "value": 70
  },
  {
    "name": "石狮赛特医院",
    "lng": 118.648291,
    "lat": 24.745116,
    "value": 70
  },
  {
    "name": "泉州市洛江区罗溪卫生院",
    "lng": 118.618532,
    "lat": 25.21649302,
    "value": 70
  },
  {
    "name": "闽清县医院",
    "lng": 118.877365,
    "lat": 26.22486396,
    "value": 70
  },
  {
    "name": "周宁县中医院",
    "lng": 119.344065,
    "lat": 27.10952298,
    "value": 70
  },
  {
    "name": "峰尾镇卫生院",
    "lng": 118.958098,
    "lat": 25.12449603,
    "value": 70
  },
  {
    "name": "仙师卫生院",
    "lng": 116.6388621,
    "lat": 24.69749878,
    "value": 70
  },
  {
    "name": "南平市建阳区将口镇中心卫生院",
    "lng": 118.08875,
    "lat": 27.44980629,
    "value": 70
  },
  {
    "name": "庆城县葛崾岘卫生院",
    "lng": 107.719037,
    "lat": 35.97887599,
    "value": 70
  },
  {
    "name": "清泉镇中心卫生院",
    "lng": 101.0990292,
    "lat": 38.79370713,
    "value": 70
  },
  {
    "name": "古浪县土门中心卫生院",
    "lng": 103.0692875,
    "lat": 37.62841305,
    "value": 70
  },
  {
    "name": "什川镇卫生院",
    "lng": 104.910742,
    "lat": 35.17206692,
    "value": 70
  },
  {
    "name": "白银市第一人民医院",
    "lng": 104.180903,
    "lat": 36.55777194,
    "value": 70
  },
  {
    "name": "定西市安定区新集乡卫生院",
    "lng": 104.81296,
    "lat": 35.76460272,
    "value": 70
  },
  {
    "name": "沙井镇中心卫生院",
    "lng": 100.2747507,
    "lat": 39.10584005,
    "value": 70
  },
  {
    "name": "环县芦家湾乡卫生院",
    "lng": 106.600586,
    "lat": 36.38044706,
    "value": 70
  },
  {
    "name": "定西市安定区巉口中心卫生院",
    "lng": 104.5351617,
    "lat": 35.72109547,
    "value": 70
  },
  {
    "name": "陇西县宏伟乡卫生院",
    "lng": 104.802223,
    "lat": 35.3055689,
    "value": 70
  },
  {
    "name": "碌曲县拉仁关乡卫生院",
    "lng": 102.6445021,
    "lat": 34.53563872,
    "value": 70
  },
  {
    "name": "花牛中心卫生院",
    "lng": 105.8303456,
    "lat": 34.57094381,
    "value": 70
  },
  {
    "name": "四房吴乡卫生院",
    "lng": 105.13203,
    "lat": 36.06376251,
    "value": 70
  },
  {
    "name": "临夏县黄泥湾中心卫生院",
    "lng": 103.2402547,
    "lat": 35.54359516,
    "value": 70
  },
  {
    "name": "新华镇中心卫生院",
    "lng": 100.0289035,
    "lat": 39.20085702,
    "value": 70
  },
  {
    "name": "首阳中心卫生院",
    "lng": 104.440958,
    "lat": 35.08553594,
    "value": 70
  },
  {
    "name": "兰州市西固区河口乡卫生院",
    "lng": 103.4450501,
    "lat": 36.17756234,
    "value": 70
  },
  {
    "name": "秦州区天水中心卫生院",
    "lng": 105.6095164,
    "lat": 34.31320765,
    "value": 70
  },
  {
    "name": "天水市第一人民医院",
    "lng": 105.743935,
    "lat": 34.58540796,
    "value": 70
  },
  {
    "name": "城关镇卫生院",
    "lng": 103.3411508,
    "lat": 35.41347369,
    "value": 70
  },
  {
    "name": "兰州市八里镇卫生院",
    "lng": 103.8414397,
    "lat": 35.99783786,
    "value": 70
  },
  {
    "name": "庆城县人民医院",
    "lng": 107.901699,
    "lat": 35.99674591,
    "value": 70
  },
  {
    "name": "临泽县平川镇卫生院",
    "lng": 100.104855,
    "lat": 39.34201413,
    "value": 70
  },
  {
    "name": "临夏县刁祁乡卫生院",
    "lng": 103.0148018,
    "lat": 35.44794423,
    "value": 70
  },
  {
    "name": "定西市人民医院",
    "lng": 104.616862,
    "lat": 35.6026089,
    "value": 70
  },
  {
    "name": "天水市中医医院",
    "lng": 105.725165,
    "lat": 34.58129401,
    "value": 70
  },
  {
    "name": "民乐县人民医院",
    "lng": 100.8241543,
    "lat": 38.44081875,
    "value": 70
  },
  {
    "name": "会宁县草滩乡卫生院",
    "lng": 105.1819848,
    "lat": 36.2554668,
    "value": 70
  },
  {
    "name": "陇西县渭阳乡卫生院",
    "lng": 104.778975,
    "lat": 35.08615792,
    "value": 70
  },
  {
    "name": "骆驼城卫生院",
    "lng": 99.64937443,
    "lat": 39.35618178,
    "value": 70
  },
  {
    "name": "陇南市武都区角弓中心卫生院",
    "lng": 104.650654,
    "lat": 33.57341915,
    "value": 70
  },
  {
    "name": "盘安中心卫生院",
    "lng": 106.1316926,
    "lat": 35.16328356,
    "value": 70
  },
  {
    "name": "高平中心卫生院",
    "lng": 107.5406765,
    "lat": 35.30262067,
    "value": 70
  },
  {
    "name": "甘肃省第二人民医院",
    "lng": 103.8440874,
    "lat": 36.04675186,
    "value": 70
  },
  {
    "name": "位奇镇卫生院",
    "lng": 101.1409962,
    "lat": 38.63914883,
    "value": 70
  },
  {
    "name": "康县大堡中心卫生院",
    "lng": 105.586298,
    "lat": 33.47388385,
    "value": 70
  },
  {
    "name": "寨子沟卫生院",
    "lng": 102.9018805,
    "lat": 35.6849265,
    "value": 70
  },
  {
    "name": "环县洪德乡卫生院",
    "lng": 107.1964705,
    "lat": 36.77448427,
    "value": 70
  },
  {
    "name": "民权乡卫生院",
    "lng": 103.3876271,
    "lat": 37.4507821,
    "value": 70
  },
  {
    "name": "陈户中心卫生院",
    "lng": 101.2475033,
    "lat": 38.58538067,
    "value": 70
  },
  {
    "name": "四季青街道社区卫生服务中心(西固巷)",
    "lng": 103.6275825,
    "lat": 36.1100691,
    "value": 70
  },
  {
    "name": "兰州市肺科医院",
    "lng": 103.803242,
    "lat": 36.0777589,
    "value": 70
  },
  {
    "name": "武都区第三人民医院",
    "lng": 105.0498424,
    "lat": 33.51107461,
    "value": 70
  },
  {
    "name": "临潭县长川乡卫生院",
    "lng": 103.4367077,
    "lat": 34.71954722,
    "value": 70
  },
  {
    "name": "陇南市人民医院",
    "lng": 104.9559555,
    "lat": 33.37864768,
    "value": 70
  },
  {
    "name": "皋兰县九合镇卫生院",
    "lng": 103.6371387,
    "lat": 36.26511969,
    "value": 70
  },
  {
    "name": "马营卫生院",
    "lng": 104.4253694,
    "lat": 33.1418354,
    "value": 70
  },
  {
    "name": "临泽县鸭暖中心卫生院",
    "lng": 100.241649,
    "lat": 39.27978913,
    "value": 70
  },
  {
    "name": "榆中县第三人民医院",
    "lng": 103.9685253,
    "lat": 36.00930337,
    "value": 70
  },
  {
    "name": "春台乡卫生院",
    "lng": 103.3628382,
    "lat": 35.69065426,
    "value": 70
  },
  {
    "name": "景泰县中医院",
    "lng": 104.068799,
    "lat": 37.20255595,
    "value": 70
  },
  {
    "name": "民勤县泉山中心卫生院",
    "lng": 103.3145085,
    "lat": 38.86717706,
    "value": 70
  },
  {
    "name": "渭源县中医院",
    "lng": 104.239263,
    "lat": 35.15238896,
    "value": 70
  },
  {
    "name": "元城中心卫生院",
    "lng": 107.80049,
    "lat": 36.65751592,
    "value": 70
  },
  {
    "name": "新营乡卫生院",
    "lng": 103.2774128,
    "lat": 35.34250969,
    "value": 70
  },
  {
    "name": "三合乡卫生院",
    "lng": 105.5182886,
    "lat": 35.67836816,
    "value": 70
  },
  {
    "name": "临潭县第二人民医院",
    "lng": 103.598852,
    "lat": 34.67889395,
    "value": 70
  },
  {
    "name": "木耳乡卫生院",
    "lng": 104.3547663,
    "lat": 34.26285515,
    "value": 70
  },
  {
    "name": "平凉市第二人民医院",
    "lng": 106.687748,
    "lat": 35.54437292,
    "value": 70
  },
  {
    "name": "平川区人民医院",
    "lng": 104.8215685,
    "lat": 36.73010665,
    "value": 70
  },
  {
    "name": "兰州市红古区人民医院",
    "lng": 102.8606132,
    "lat": 36.35170188,
    "value": 70
  },
  {
    "name": "宕昌县两河口乡卫生院",
    "lng": 104.4960533,
    "lat": 33.6970569,
    "value": 70
  },
  {
    "name": "庄浪县通化中心卫生院",
    "lng": 106.1324272,
    "lat": 35.34689461,
    "value": 70
  },
  {
    "name": "陇西县第二人民医院",
    "lng": 104.705195,
    "lat": 34.95447294,
    "value": 70
  },
  {
    "name": "瓜州县梁湖乡卫生院",
    "lng": 96.00674505,
    "lat": 40.50046027,
    "value": 70
  },
  {
    "name": "甘肃省肿瘤医院",
    "lng": 103.799393,
    "lat": 36.07199587,
    "value": 70
  },
  {
    "name": "文县第一人民医院",
    "lng": 104.688277,
    "lat": 32.9476611,
    "value": 70
  },
  {
    "name": "民乐县六坝中心卫生院",
    "lng": 100.733997,
    "lat": 38.65139441,
    "value": 70
  },
  {
    "name": "四河乡卫生院",
    "lng": 105.470886,
    "lat": 35.4672079,
    "value": 70
  },
  {
    "name": "阿克塞哈萨克族自治县人民医院",
    "lng": 94.353939,
    "lat": 39.64074709,
    "value": 70
  },
  {
    "name": "甘泉中心卫生院",
    "lng": 105.9486344,
    "lat": 34.45229134,
    "value": 70
  },
  {
    "name": "民乐县妇幼保健院",
    "lng": 100.816484,
    "lat": 38.45157205,
    "value": 70
  },
  {
    "name": "卧龙中心卫生院",
    "lng": 105.899925,
    "lat": 35.22936594,
    "value": 70
  },
  {
    "name": "康县中医院",
    "lng": 105.60846,
    "lat": 33.33381409,
    "value": 70
  },
  {
    "name": "漳县盐井乡卫生院",
    "lng": 104.4548512,
    "lat": 34.84688039,
    "value": 70
  },
  {
    "name": "红沙堡卫生院",
    "lng": 103.176364,
    "lat": 38.66397208,
    "value": 70
  },
  {
    "name": "花庄镇社区卫生服务中心",
    "lng": 103.094611,
    "lat": 36.23515193,
    "value": 70
  },
  {
    "name": "乔川乡卫生院",
    "lng": 107.6821063,
    "lat": 36.7689832,
    "value": 70
  },
  {
    "name": "庄浪县良邑乡卫生院",
    "lng": 106.1038045,
    "lat": 35.27494074,
    "value": 70
  },
  {
    "name": "临夏县漠泥沟乡卫生院",
    "lng": 102.9545651,
    "lat": 35.47500939,
    "value": 70
  },
  {
    "name": "甘肃省人民医院(兰州新区分院)",
    "lng": 103.704222,
    "lat": 36.48405192,
    "value": 70
  },
  {
    "name": "八力乡卫生院",
    "lng": 104.3747462,
    "lat": 34.31128705,
    "value": 70
  },
  {
    "name": "临夏市民族医院",
    "lng": 103.221893,
    "lat": 35.59628888,
    "value": 70
  },
  {
    "name": "店子乡卫生院",
    "lng": 108.1308235,
    "lat": 35.87347165,
    "value": 70
  },
  {
    "name": "苦水镇卫生院",
    "lng": 103.440534,
    "lat": 36.2750899,
    "value": 70
  },
  {
    "name": "庄浪县人民医院",
    "lng": 106.054827,
    "lat": 35.2139439,
    "value": 70
  },
  {
    "name": "永宁乡卫生院",
    "lng": 106.1735136,
    "lat": 35.30700438,
    "value": 70
  },
  {
    "name": "民勤县人民医院",
    "lng": 103.088689,
    "lat": 38.62976408,
    "value": 70
  },
  {
    "name": "北滩卫生院",
    "lng": 100.7941339,
    "lat": 38.68496942,
    "value": 70
  },
  {
    "name": "策底中心卫生院",
    "lng": 106.6127171,
    "lat": 35.31415816,
    "value": 70
  },
  {
    "name": "阳川中心卫生院",
    "lng": 105.823041,
    "lat": 35.16268704,
    "value": 70
  },
  {
    "name": "折桥卫生院",
    "lng": 103.2422644,
    "lat": 35.6237021,
    "value": 70
  },
  {
    "name": "大河乡中心卫生院",
    "lng": 99.50702876,
    "lat": 39.01047208,
    "value": 70
  },
  {
    "name": "裴家营中心卫生院",
    "lng": 103.5271721,
    "lat": 37.48143877,
    "value": 70
  },
  {
    "name": "永登县民乐乡卫生院",
    "lng": 102.979764,
    "lat": 36.75207218,
    "value": 70
  },
  {
    "name": "柳河卫生院",
    "lng": 96.94586301,
    "lat": 40.41539131,
    "value": 70
  },
  {
    "name": "华池县中医医院",
    "lng": 107.990655,
    "lat": 36.46196593,
    "value": 70
  },
  {
    "name": "泾川县红河乡卫生院",
    "lng": 107.4796875,
    "lat": 35.46042112,
    "value": 70
  },
  {
    "name": "临夏县中医医院",
    "lng": 103.192711,
    "lat": 35.66381493,
    "value": 70
  },
  {
    "name": "迭部县藏医院",
    "lng": 103.222674,
    "lat": 34.05807707,
    "value": 70
  },
  {
    "name": "石坊中心卫生院",
    "lng": 104.5786399,
    "lat": 33.00504401,
    "value": 70
  },
  {
    "name": "蔡口集卫生院",
    "lng": 107.3808601,
    "lat": 36.14293789,
    "value": 70
  },
  {
    "name": "银山中心卫生院",
    "lng": 103.8938661,
    "lat": 35.83507394,
    "value": 70
  },
  {
    "name": "环县人民医院",
    "lng": 107.319057,
    "lat": 36.57375889,
    "value": 70
  },
  {
    "name": "永登县龙泉寺镇卫生院",
    "lng": 103.3971597,
    "lat": 36.4925573,
    "value": 70
  },
  {
    "name": "星火乡卫生院",
    "lng": 107.3533969,
    "lat": 35.07032293,
    "value": 70
  },
  {
    "name": "临泽县板桥中心卫生院",
    "lng": 100.2941526,
    "lat": 39.28089875,
    "value": 70
  },
  {
    "name": "漫水滩卫生院",
    "lng": 104.0082993,
    "lat": 37.50314012,
    "value": 70
  },
  {
    "name": "康乐县人民医院",
    "lng": 103.725004,
    "lat": 35.37441291,
    "value": 70
  },
  {
    "name": "苏武乡卫生院",
    "lng": 103.1193817,
    "lat": 38.62708775,
    "value": 70
  },
  {
    "name": "永昌县中医院",
    "lng": 101.95954,
    "lat": 38.25534208,
    "value": 70
  },
  {
    "name": "华池县乔河乡卫生院",
    "lng": 108.0395651,
    "lat": 36.51888507,
    "value": 70
  },
  {
    "name": "八丹乡卫生院",
    "lng": 103.6172644,
    "lat": 35.31477602,
    "value": 70
  },
  {
    "name": "兰州市中医医院",
    "lng": 103.773153,
    "lat": 36.07168292,
    "value": 70
  },
  {
    "name": "庆城县土桥卫生院",
    "lng": 107.4489307,
    "lat": 36.10881135,
    "value": 70
  },
  {
    "name": "永登县秦川中心卫生院",
    "lng": 103.6553825,
    "lat": 36.65983262,
    "value": 70
  },
  {
    "name": "皋兰县水阜中心卫生院",
    "lng": 103.8566863,
    "lat": 36.31335674,
    "value": 70
  },
  {
    "name": "瓜州县人民医院",
    "lng": 95.78193404,
    "lat": 40.523941,
    "value": 70
  },
  {
    "name": "永固中心卫生院",
    "lng": 100.9377063,
    "lat": 38.37199329,
    "value": 70
  },
  {
    "name": "虎关乡卫生院",
    "lng": 103.7638828,
    "lat": 35.42547242,
    "value": 70
  },
  {
    "name": "永登县河桥中心卫生院",
    "lng": 102.894356,
    "lat": 36.50546094,
    "value": 70
  },
  {
    "name": "高台县人民医院",
    "lng": 99.82609799,
    "lat": 39.3771021,
    "value": 70
  },
  {
    "name": "平凉市中医医院",
    "lng": 106.698563,
    "lat": 35.54318392,
    "value": 70
  },
  {
    "name": "鸣鹿乡卫生院",
    "lng": 103.5618191,
    "lat": 35.29934571,
    "value": 70
  },
  {
    "name": "临夏县河西乡卫生院",
    "lng": 103.2400297,
    "lat": 35.7164797,
    "value": 70
  },
  {
    "name": "清水县贾川乡卫生院",
    "lng": 105.9374127,
    "lat": 34.70843072,
    "value": 70
  },
  {
    "name": "中堡村卫生所",
    "lng": 103.2247296,
    "lat": 36.8102904,
    "value": 70
  },
  {
    "name": "庄浪县中医医院",
    "lng": 106.037403,
    "lat": 35.20740091,
    "value": 70
  },
  {
    "name": "镇原县殷家城乡卫生院",
    "lng": 106.9556597,
    "lat": 36.19178194,
    "value": 70
  },
  {
    "name": "花庄镇卫生院(河嘴分院)",
    "lng": 103.1892952,
    "lat": 36.19351159,
    "value": 70
  },
  {
    "name": "康县第一人民医院",
    "lng": 105.612572,
    "lat": 33.3353151,
    "value": 70
  },
  {
    "name": "何家畔乡卫生院",
    "lng": 107.8716056,
    "lat": 35.77951578,
    "value": 70
  },
  {
    "name": "三铺乡卫生院",
    "lng": 105.07493,
    "lat": 35.19594593,
    "value": 70
  },
  {
    "name": "焦家庄卫生院",
    "lng": 101.8468419,
    "lat": 38.26983522,
    "value": 70
  },
  {
    "name": "镇原县开边中心卫生院",
    "lng": 107.0775585,
    "lat": 35.77998663,
    "value": 70
  },
  {
    "name": "来紫堡乡卫生院桑园子村卫生所",
    "lng": 103.9769496,
    "lat": 36.05960903,
    "value": 70
  },
  {
    "name": "民乐县丰乐卫生院",
    "lng": 100.6613429,
    "lat": 38.50170069,
    "value": 70
  },
  {
    "name": "景泰县人民医院",
    "lng": 104.07661,
    "lat": 37.19798295,
    "value": 70
  },
  {
    "name": "罗汉洞乡卫生院",
    "lng": 107.4951246,
    "lat": 35.36031256,
    "value": 70
  },
  {
    "name": "党原乡卫生院",
    "lng": 107.2350159,
    "lat": 35.45546109,
    "value": 70
  },
  {
    "name": "细巷乡卫生院",
    "lng": 105.5954629,
    "lat": 35.50362132,
    "value": 70
  },
  {
    "name": "渭源县人民医院",
    "lng": 104.205793,
    "lat": 35.12737092,
    "value": 70
  },
  {
    "name": "青海油田职工总医院",
    "lng": 94.59962097,
    "lat": 40.12381908,
    "value": 70
  },
  {
    "name": "定西市安定区第二人民医院",
    "lng": 104.419639,
    "lat": 35.53264087,
    "value": 70
  },
  {
    "name": "山丹县人民医院",
    "lng": 101.095805,
    "lat": 38.78483008,
    "value": 70
  },
  {
    "name": "青岚卫生院",
    "lng": 104.7250331,
    "lat": 35.63806814,
    "value": 70
  },
  {
    "name": "定西市安定区香泉中心卫生院",
    "lng": 104.5193597,
    "lat": 35.43401963,
    "value": 70
  },
  {
    "name": "漳县人民医院",
    "lng": 104.480471,
    "lat": 34.85416593,
    "value": 70
  },
  {
    "name": "平凉市崆峒区崆峒镇卫生院",
    "lng": 106.605201,
    "lat": 35.55206987,
    "value": 70
  },
  {
    "name": "民乐县中医医院",
    "lng": 100.812102,
    "lat": 38.45546609,
    "value": 70
  },
  {
    "name": "东乡县果园乡卫生院(石拉泉分院)",
    "lng": 103.6200908,
    "lat": 35.57481049,
    "value": 70
  },
  {
    "name": "卓尼县人民医院",
    "lng": 103.502603,
    "lat": 34.59187596,
    "value": 70
  },
  {
    "name": "敦煌市肃州镇中心卫生院",
    "lng": 94.65477972,
    "lat": 40.1471639,
    "value": 70
  },
  {
    "name": "徐扈家卫生院",
    "lng": 102.9463955,
    "lat": 35.67313078,
    "value": 70
  },
  {
    "name": "华亭市人民医院",
    "lng": 106.617845,
    "lat": 35.2049389,
    "value": 70
  },
  {
    "name": "永登县七山乡卫生院",
    "lng": 103.0541921,
    "lat": 36.51841773,
    "value": 70
  },
  {
    "name": "羊永乡卫生院",
    "lng": 103.4874978,
    "lat": 34.6522552,
    "value": 70
  },
  {
    "name": "古浪县海子滩镇卫生院",
    "lng": 103.5957609,
    "lat": 37.58415772,
    "value": 70
  },
  {
    "name": "李家堡镇卫生院",
    "lng": 104.7430757,
    "lat": 35.47462388,
    "value": 70
  },
  {
    "name": "七里镇卫生院(新区门诊)",
    "lng": 94.59527102,
    "lat": 40.12367109,
    "value": 70
  },
  {
    "name": "碌曲县西仓乡卫生院",
    "lng": 102.5776291,
    "lat": 34.57134992,
    "value": 70
  },
  {
    "name": "赵墩乡卫生院",
    "lng": 105.9519154,
    "lat": 35.3691557,
    "value": 70
  },
  {
    "name": "陇南市中医医院",
    "lng": 104.937047,
    "lat": 33.39584714,
    "value": 70
  },
  {
    "name": "玛曲县藏医医院",
    "lng": 102.0878821,
    "lat": 34.00395036,
    "value": 70
  },
  {
    "name": "东乡族自治县人民医院",
    "lng": 103.393307,
    "lat": 35.66778193,
    "value": 70
  },
  {
    "name": "龙坝乡卫生院",
    "lng": 105.3021054,
    "lat": 33.62694851,
    "value": 70
  },
  {
    "name": "南古中心卫生院",
    "lng": 100.5017975,
    "lat": 38.54445415,
    "value": 70
  },
  {
    "name": "文县中医院",
    "lng": 104.699471,
    "lat": 32.94052415,
    "value": 70
  },
  {
    "name": "山丹县妇幼保健院",
    "lng": 101.0933466,
    "lat": 38.78856263,
    "value": 70
  },
  {
    "name": "白银市第二人民医院",
    "lng": 104.18281,
    "lat": 36.54896088,
    "value": 70
  },
  {
    "name": "合水县蒿咀铺卫生院",
    "lng": 108.2205766,
    "lat": 36.05603205,
    "value": 70
  },
  {
    "name": "树屏镇卫生院",
    "lng": 103.599033,
    "lat": 36.31957291,
    "value": 70
  },
  {
    "name": "峡口卫生院",
    "lng": 104.0572139,
    "lat": 35.53021381,
    "value": 70
  },
  {
    "name": "环县曲子中心卫生院",
    "lng": 107.5282108,
    "lat": 36.29661413,
    "value": 70
  },
  {
    "name": "彭原心脑血管病医院",
    "lng": 107.6240387,
    "lat": 35.81522895,
    "value": 70
  },
  {
    "name": "汪集中心卫生院",
    "lng": 103.518808,
    "lat": 35.61874454,
    "value": 70
  },
  {
    "name": "仁大中心卫生院",
    "lng": 105.7611269,
    "lat": 35.14075783,
    "value": 70
  },
  {
    "name": "临夏市人民医院",
    "lng": 103.220501,
    "lat": 35.60021993,
    "value": 70
  },
  {
    "name": "金昌市中心医院",
    "lng": 102.185687,
    "lat": 38.51167406,
    "value": 70
  },
  {
    "name": "合水县人民医院",
    "lng": 108.024632,
    "lat": 35.82442788,
    "value": 70
  },
  {
    "name": "石门镇卫生院",
    "lng": 103.0500727,
    "lat": 37.00688174,
    "value": 70
  },
  {
    "name": "金川区宁远堡镇卫生院",
    "lng": 102.1796532,
    "lat": 38.51831436,
    "value": 70
  },
  {
    "name": "平凉市崆峒区大寨卫生院",
    "lng": 106.8306393,
    "lat": 35.39568177,
    "value": 70
  },
  {
    "name": "庆城县岐伯中医医院",
    "lng": 107.893952,
    "lat": 36.02428589,
    "value": 70
  },
  {
    "name": "甘州区大满镇和平卫生院",
    "lng": 100.3995352,
    "lat": 38.78283998,
    "value": 70
  },
  {
    "name": "麦积区伯阳镇卫生院",
    "lng": 106.0639406,
    "lat": 34.53295663,
    "value": 70
  },
  {
    "name": "靖远县平堡乡卫生院",
    "lng": 104.4074813,
    "lat": 36.42585275,
    "value": 70
  },
  {
    "name": "迭部县人民医院",
    "lng": 103.238216,
    "lat": 34.06057705,
    "value": 70
  },
  {
    "name": "迭部县卡坝乡卫生院",
    "lng": 103.498659,
    "lat": 33.98443229,
    "value": 70
  },
  {
    "name": "中寨中心卫生院",
    "lng": 104.426964,
    "lat": 33.19377712,
    "value": 70
  },
  {
    "name": "天祝藏族自治县藏医院",
    "lng": 103.138329,
    "lat": 36.98608197,
    "value": 70
  },
  {
    "name": "陇西县第一人民医院",
    "lng": 104.66897,
    "lat": 34.99674597,
    "value": 70
  },
  {
    "name": "崇信县锦屏镇九功卫生院",
    "lng": 107.1200747,
    "lat": 35.32979897,
    "value": 70
  },
  {
    "name": "永昌县六坝中心卫生院",
    "lng": 102.1585658,
    "lat": 38.16961857,
    "value": 70
  },
  {
    "name": "临泽县倪家营乡卫生院",
    "lng": 100.1343926,
    "lat": 39.03648741,
    "value": 70
  },
  {
    "name": "永登县柳树乡卫生院",
    "lng": 103.3051194,
    "lat": 36.67835295,
    "value": 70
  },
  {
    "name": "新庄乡中心卫生院",
    "lng": 103.3666002,
    "lat": 35.3385877,
    "value": 70
  },
  {
    "name": "陇西县菜子中心卫生院",
    "lng": 104.48313,
    "lat": 34.99478991,
    "value": 70
  },
  {
    "name": "玛曲县人民医院",
    "lng": 102.082709,
    "lat": 34.00451404,
    "value": 70
  },
  {
    "name": "陇西县永吉乡卫生院",
    "lng": 104.852961,
    "lat": 34.90836592,
    "value": 70
  },
  {
    "name": "汭丰卫生院",
    "lng": 107.2620083,
    "lat": 35.31192776,
    "value": 70
  },
  {
    "name": "环县中医医院",
    "lng": 107.3095123,
    "lat": 36.57822246,
    "value": 70
  },
  {
    "name": "华池县白马乡卫生院",
    "lng": 107.7386501,
    "lat": 36.59839408,
    "value": 70
  },
  {
    "name": "达川乡卫生院",
    "lng": 103.3706904,
    "lat": 36.13468507,
    "value": 70
  },
  {
    "name": "陇西县双泉镇卫生院",
    "lng": 104.423653,
    "lat": 35.13781197,
    "value": 70
  },
  {
    "name": "陇西县中医医院",
    "lng": 104.667333,
    "lat": 35.02038493,
    "value": 70
  },
  {
    "name": "两水镇卫生院",
    "lng": 104.812042,
    "lat": 33.43707986,
    "value": 70
  },
  {
    "name": "王岘路社区卫生服务中心",
    "lng": 104.1758388,
    "lat": 36.54187661,
    "value": 70
  },
  {
    "name": "航天镇卫生院",
    "lng": 99.64011955,
    "lat": 40.378617,
    "value": 70
  },
  {
    "name": "环县八珠乡卫生院",
    "lng": 107.5653745,
    "lat": 36.55036421,
    "value": 70
  },
  {
    "name": "上杨乡卫生院",
    "lng": 106.7684533,
    "lat": 35.4662771,
    "value": 70
  },
  {
    "name": "赤城乡卫生院",
    "lng": 107.8250017,
    "lat": 35.83117578,
    "value": 70
  },
  {
    "name": "甘肃省人民医院",
    "lng": 103.873588,
    "lat": 36.05431991,
    "value": 70
  },